X,Y,NAME,STATION_TYPE,STATION_ID,STATION_STATUS,LAST_REPORTED,NUM_DOCKS_AVAILABLE,NUM_DOCKS_DISABLED,NUM_BIKES_AVAILABLE,NUM_EBIKES_AVAILABLE,NUM_BIKES_DISABLED,IS_INSTALLED,IS_RETURNING,IS_RENTING,HAS_KIOSK,IOS,ANDROID,ELECTRIC_BIKE_SURCHARGE_WAIVER,EIGHTD_HAS_KEY_DISPENSER,CAPACITY,RENTAL_METHODS,REGION_ID,REGION_NAME,GIS_ID,LATITUDE,LONGITUDE,GIS_LAST_MOD_DTTM,OBJECTID
-77.0351978533488,38.9233403831183,15th & Euclid St NW,classic,0825525a-1f3f-11e7-bf6b-3863bb334450,,2024/04/01 01:49:16+00,11,0,4,4,0,YES,YES,YES,YES,https://dc.lft.to/lastmile_qr_scan,https://dc.lft.to/lastmile_qr_scan,NO,NO,15,"KEY,CREDITCARD",42,DCA-CABI,,38.92333,-77.0352,2024/04/01 01:52:28+00,172451636
-77.0362764230202,38.9126561720997,16th & R St NW,classic,0826183f-1f3f-11e7-bf6b-3863bb334450,,2024/04/01 01:49:12+00,6,0,12,1,0,YES,YES,YES,YES,https://dc.lft.to/lastmile_qr_scan,https://dc.lft.to/lastmile_qr_scan,NO,NO,19,"KEY,CREDITCARD",42,DCA-CABI,,38.912652,-77.036278,2024/04/01 01:52:28+00,172451637
-76.9940994263414,38.9050946446331,Gallaudet / 8th St & Florida Ave NE,classic,08252b28-1f3f-11e7-bf6b-3863bb334450,,2024/04/01 01:49:12+00,19,0,0,0,0,YES,YES,YES,YES,https://dc.lft.to/lastmile_qr_scan,https://dc.lft.to/lastmile_qr_scan,NO,NO,19,"KEY,CREDITCARD",42,DCA-CABI,,38.90509,-76.9941,2024/04/01 01:52:28+00,172451638
-77.0708600138901,38.893866898986,N Lynn St & Fairfax Dr,classic,0826402c-1f3f-11e7-bf6b-3863bb334450,,2024/04/01 01:49:17+00,2,0,12,1,1,YES,YES,YES,YES,https://dc.lft.to/lastmile_qr_scan,https://dc.lft.to/lastmile_qr_scan,NO,NO,15,"KEY,CREDITCARD",41,DCA-CABI,,38.89386,-77.070862,2024/04/01 01:52:28+00,172451639
-76.9868126503982,38.9074542372649,Montello Ave & Holbrook Terr NE,classic,a07bd5e0-5136-4285-ae23-54a74124957e,,2024/04/01 01:49:24+00,10,0,9,5,0,YES,YES,YES,YES,https://dc.lft.to/lastmile_qr_scan,https://dc.lft.to/lastmile_qr_scan,NO,NO,19,"KEY,CREDITCARD",42,DCA-CABI,,38.907444,-76.986813,2024/04/01 01:52:28+00,172451640
-76.9678519649046,38.8959649024429,Kingman Island/The Fields at RFK,classic,bed9b757-0df2-4a97-a6ac-415db00e82c8,,2024/04/01 01:49:23+00,13,0,6,3,0,YES,YES,YES,YES,https://dc.lft.to/lastmile_qr_scan,https://dc.lft.to/lastmile_qr_scan,NO,NO,19,"KEY,CREDITCARD",42,DCA-CABI,,38.895955,-76.967845,2024/04/01 01:52:28+00,172451641
-77.010331355664,38.8190999717733,Joliet St & MLK Ave SW/Bald Eagle Rec Ctr,classic,7c46ff05-4fca-44e6-a50b-acbc57e8100b,,2024/04/01 01:49:24+00,9,0,5,1,0,YES,YES,YES,YES,https://dc.lft.to/lastmile_qr_scan,https://dc.lft.to/lastmile_qr_scan,NO,NO,15,"KEY,CREDITCARD",42,DCA-CABI,,38.81909,-77.01033,2024/04/01 01:52:28+00,172451642
-77.3615134849014,38.9586668140257,Market St & St Francis St,classic,0136af02-2670-4042-b5cd-18b46c15c0c1,,2024/04/01 01:49:24+00,5,0,7,0,0,YES,YES,YES,YES,https://dc.lft.to/lastmile_qr_scan,https://dc.lft.to/lastmile_qr_scan,NO,NO,12,"KEY,CREDITCARD",104,DCA-CABI,,38.95866,-77.361516,2024/04/01 01:52:28+00,172451643
-76.9883603619878,38.8904646309254,Lincoln Park / 13th & East Capitol St NE ,classic,0824c229-1f3f-11e7-bf6b-3863bb334450,,2024/04/01 01:49:25+00,9,0,14,1,2,YES,YES,YES,YES,https://dc.lft.to/lastmile_qr_scan,https://dc.lft.to/lastmile_qr_scan,NO,NO,25,"KEY,CREDITCARD",42,DCA-CABI,,38.890461,-76.988355,2024/04/01 01:52:28+00,172451644
-77.0281377047284,38.9167932421235,12th & U St NW,classic,08256670-1f3f-11e7-bf6b-3863bb334450,,2024/04/01 01:49:35+00,23,1,6,2,0,YES,YES,YES,YES,https://dc.lft.to/lastmile_qr_scan,https://dc.lft.to/lastmile_qr_scan,NO,NO,31,"KEY,CREDITCARD",42,DCA-CABI,,38.916787,-77.028139,2024/04/01 01:52:28+00,172451645
-76.8912447535881,39.0061980581302,Crescent Rd & Ridge Rd,classic,10d57c0d-6f3c-45d1-8a12-eda5665e213c,,2024/04/01 01:49:35+00,12,0,2,0,1,YES,YES,YES,YES,https://dc.lft.to/lastmile_qr_scan,https://dc.lft.to/lastmile_qr_scan,NO,NO,15,"KEY,CREDITCARD",133,DCA-CABI,,39.006191,-76.891247,2024/04/01 01:52:28+00,172451646
-77.0049361412587,38.8969691496826,Columbus Circle / Union Station,classic,0824d0c6-1f3f-11e7-bf6b-3863bb334450,,2024/04/01 01:49:30+00,10,0,43,1,1,YES,YES,YES,YES,https://dc.lft.to/lastmile_qr_scan,https://dc.lft.to/lastmile_qr_scan,NO,NO,55,"KEY,CREDITCARD",42,DCA-CABI,,38.89696,-77.00493,2024/04/01 01:52:28+00,172451647
-77.2038668517549,39.1056464863681,Key West Ave & Great Seneca Hwy,classic,1b55b8fa-73d6-4076-98e5-9f177d22958e,,2024/04/01 01:49:30+00,5,0,6,0,0,YES,YES,YES,YES,https://dc.lft.to/lastmile_qr_scan,https://dc.lft.to/lastmile_qr_scan,NO,NO,11,"KEY,CREDITCARD",43,DCA-CABI,,39.105642,-77.20386,2024/04/01 01:52:28+00,172451648
-77.2081333767029,38.9240071210264,McLean Metro,classic,6ffb5d30-d3f4-462b-8182-c552bebc9310,,2024/04/01 01:49:30+00,4,0,15,0,0,YES,YES,YES,YES,https://dc.lft.to/lastmile_qr_scan,https://dc.lft.to/lastmile_qr_scan,NO,NO,19,"KEY,CREDITCARD",104,DCA-CABI,,38.924002,-77.208127,2024/04/01 01:52:28+00,172451649
-77.0945896319286,38.9771048519798,Offutt Ln & Chevy Chase Dr,classic,0825b2e7-1f3f-11e7-bf6b-3863bb334450,,2024/04/01 01:49:32+00,9,0,2,1,0,YES,YES,YES,YES,https://dc.lft.to/lastmile_qr_scan,https://dc.lft.to/lastmile_qr_scan,NO,NO,11,"KEY,CREDITCARD",44,DCA-CABI,,38.977093,-77.094589,2024/04/01 01:52:28+00,172451650
-76.9135622569639,38.8918115122125,61st St & Banks Pl NE,classic,08263cab-1f3f-11e7-bf6b-3863bb334450,,2024/04/01 01:49:32+00,10,0,9,1,0,YES,YES,YES,YES,https://dc.lft.to/lastmile_qr_scan,https://dc.lft.to/lastmile_qr_scan,NO,NO,19,"KEY,CREDITCARD",42,DCA-CABI,,38.891805,-76.913563,2024/04/01 01:52:28+00,172451651
-76.9884252101572,38.9881055335589,New Hampshire & Kirklynn Ave,classic,082650b1-1f3f-11e7-bf6b-3863bb334450,,2024/04/01 01:49:43+00,2,0,13,3,0,YES,YES,YES,YES,https://dc.lft.to/lastmile_qr_scan,https://dc.lft.to/lastmile_qr_scan,NO,NO,15,"KEY,CREDITCARD",44,DCA-CABI,,38.988101,-76.988422,2024/04/01 01:52:28+00,172451652
-77.0007055760562,38.9073198538941,4th & Florida Ave NE,classic,21cdfe0d-71ad-4302-a003-3cfc0d355af9,,2024/04/01 01:49:44+00,1,1,16,11,0,YES,YES,YES,YES,https://dc.lft.to/lastmile_qr_scan,https://dc.lft.to/lastmile_qr_scan,NO,NO,19,"KEY,CREDITCARD",42,DCA-CABI,,38.907316,-77.000698,2024/04/01 01:52:28+00,172451653
-77.0007757683106,39.0004833646624,Garland Ave & Walden Rd,classic,a3761e59-db36-4b61-8bb3-8d523af69b96,,2024/04/01 01:49:40+00,10,0,5,3,0,YES,YES,YES,YES,https://dc.lft.to/lastmile_qr_scan,https://dc.lft.to/lastmile_qr_scan,NO,NO,15,"KEY,CREDITCARD",44,DCA-CABI,,39.00048,-77.00077,2024/04/01 01:52:28+00,172451654
-77.0640137061059,38.8434327558161,Mount Vernon Ave & Four Mile Run Park,classic,08262494-1f3f-11e7-bf6b-3863bb334450,,2024/04/01 01:49:41+00,8,0,7,2,0,YES,YES,YES,YES,https://dc.lft.to/lastmile_qr_scan,https://dc.lft.to/lastmile_qr_scan,NO,NO,15,"KEY,CREDITCARD",40,DCA-CABI,,38.843422,-77.064016,2024/04/01 01:52:28+00,172451655
-77.0383271437103,38.8881077352928,17th St & Independence Ave SW,classic,082623bf-1f3f-11e7-bf6b-3863bb334450,,2024/04/01 01:49:39+00,12,0,3,0,3,YES,YES,YES,YES,https://dc.lft.to/lastmile_qr_scan,https://dc.lft.to/lastmile_qr_scan,NO,NO,18,"KEY,CREDITCARD",42,DCA-CABI,,38.888097,-77.038325,2024/04/01 01:52:28+00,172451656
-77.0221518979098,38.912722762215,7th & R St NW / Shaw Library,classic,082514b8-1f3f-11e7-bf6b-3863bb334450,,2024/04/01 01:49:40+00,6,4,0,0,2,YES,YES,YES,YES,https://dc.lft.to/lastmile_qr_scan,https://dc.lft.to/lastmile_qr_scan,NO,NO,15,"KEY,CREDITCARD",42,DCA-CABI,,38.912719,-77.022155,2024/04/01 01:52:28+00,172451657
-77.1277769416682,38.9042592070799,Marymount University / Yorktown Blvd & 26th St N,classic,5eb5b5a7-db69-4d8a-a16a-604678a544b7,,2024/04/01 01:49:43+00,6,0,9,6,0,YES,YES,YES,YES,https://dc.lft.to/lastmile_qr_scan,https://dc.lft.to/lastmile_qr_scan,NO,NO,15,"KEY,CREDITCARD",41,DCA-CABI,,38.904252,-77.127776,2024/04/01 01:52:28+00,172451658
-77.3497701102766,38.9637922366201,N Shore Dr & Wainwright Dr,classic,c98241f4-a3c0-4eb8-86bd-dd057baa0192,,2024/04/01 01:49:36+00,3,0,9,2,0,YES,YES,YES,YES,https://dc.lft.to/lastmile_qr_scan,https://dc.lft.to/lastmile_qr_scan,NO,NO,12,"KEY,CREDITCARD",104,DCA-CABI,,38.963782,-77.349764,2024/04/01 01:52:28+00,172451659
-77.0019505600023,38.9004194405368,3rd & H St NE,classic,0824bce1-1f3f-11e7-bf6b-3863bb334450,,2024/04/01 01:49:36+00,11,0,8,4,0,YES,YES,YES,YES,https://dc.lft.to/lastmile_qr_scan,https://dc.lft.to/lastmile_qr_scan,NO,NO,19,"KEY,CREDITCARD",42,DCA-CABI,,38.900412,-77.001949,2024/04/01 01:52:28+00,172451660
-77.1964488648481,39.1031008884906,Medical Center Dr & Key West Ave,classic,0825df01-1f3f-11e7-bf6b-3863bb334450,,2024/04/01 01:49:44+00,12,0,3,0,0,YES,YES,YES,YES,https://dc.lft.to/lastmile_qr_scan,https://dc.lft.to/lastmile_qr_scan,NO,NO,15,"KEY,CREDITCARD",43,DCA-CABI,,39.103091,-77.196442,2024/04/01 01:52:28+00,172451661
-77.0934836893771,38.8378546568809,31st St & S Woodrow St,classic,0825be94-1f3f-11e7-bf6b-3863bb334450,,2024/04/01 01:49:46+00,4,0,7,3,0,YES,YES,YES,YES,https://dc.lft.to/lastmile_qr_scan,https://dc.lft.to/lastmile_qr_scan,NO,NO,11,"KEY,CREDITCARD",41,DCA-CABI,,38.837846,-77.093478,2024/04/01 01:52:28+00,172451662
-77.0494385822381,38.8882657114217,Lincoln Memorial,classic,08254284-1f3f-11e7-bf6b-3863bb334450,,2024/04/01 01:49:48+00,22,0,1,0,2,YES,YES,YES,YES,https://dc.lft.to/lastmile_qr_scan,https://dc.lft.to/lastmile_qr_scan,NO,NO,25,"KEY,CREDITCARD",42,DCA-CABI,,38.888255,-77.049437,2024/04/01 01:52:28+00,172451663
-76.997234009712,38.9388939925463,John McCormack Rd NE,classic,8bbafd08-edb1-426d-94f4-c7b7d9be34dd,,2024/04/01 01:49:47+00,1,0,18,2,0,YES,YES,YES,YES,https://dc.lft.to/lastmile_qr_scan,https://dc.lft.to/lastmile_qr_scan,NO,NO,19,"KEY,CREDITCARD",42,DCA-CABI,,38.938889,-76.997226,2024/04/01 01:52:28+00,172451664
-77.0895616034862,38.8423259266696,S Arlington Mill Dr & Campbell Ave,classic,08254dee-1f3f-11e7-bf6b-3863bb334450,,2024/04/01 01:49:50+00,10,0,5,1,0,YES,YES,YES,YES,https://dc.lft.to/lastmile_qr_scan,https://dc.lft.to/lastmile_qr_scan,NO,NO,15,"KEY,CREDITCARD",41,DCA-CABI,,38.84232,-77.089555,2024/04/01 01:52:28+00,172451665
-77.3403764477456,38.9514515279823,W&OD Trail/Sunset Hills Rd & Isaac Newton Sq,classic,08263fbd-1f3f-11e7-bf6b-3863bb334450,,2024/04/01 01:49:51+00,5,0,6,2,0,YES,YES,YES,YES,https://dc.lft.to/lastmile_qr_scan,https://dc.lft.to/lastmile_qr_scan,NO,NO,11,"KEY,CREDITCARD",104,DCA-CABI,,38.951443,-77.340377,2024/04/01 01:52:28+00,172451666
-77.3597231365606,38.9536997349713,Reston Town Center Metro North,classic,e823318f-8406-4230-8072-1667f5de78d4,,2024/04/01 01:49:51+00,17,0,2,0,0,YES,YES,YES,YES,https://dc.lft.to/lastmile_qr_scan,https://dc.lft.to/lastmile_qr_scan,NO,NO,19,"KEY,CREDITCARD",104,DCA-CABI,,38.953691,-77.359717,2024/04/01 01:52:28+00,172451667
-77.0686237506844,38.9657815960674,Broad Branch Rd & Northampton St NW,classic,68eaf9f5-7b2d-4f60-9f02-9f5ba1103f80,,2024/04/01 01:49:53+00,4,0,15,5,0,YES,YES,YES,YES,https://dc.lft.to/lastmile_qr_scan,https://dc.lft.to/lastmile_qr_scan,NO,NO,19,"KEY,CREDITCARD",42,DCA-CABI,,38.965775,-77.068626,2024/04/01 01:52:28+00,172451668
-77.3563310691994,38.9605834802193,New Dominion Pkwy & Fountain Dr,classic,08263959-1f3f-11e7-bf6b-3863bb334450,,2024/04/01 01:49:53+00,12,0,3,0,0,YES,YES,YES,YES,https://dc.lft.to/lastmile_qr_scan,https://dc.lft.to/lastmile_qr_scan,NO,NO,15,"KEY,CREDITCARD",104,DCA-CABI,,38.960574,-77.356324,2024/04/01 01:52:28+00,172451669
-77.002236360431,38.8237397743188,Livingston Rd & 3rd St SE,classic,d72b1790-0fea-4af8-9d2a-fd4d4db24d1a,,2024/04/01 01:49:52+00,8,0,7,0,0,YES,YES,YES,YES,https://dc.lft.to/lastmile_qr_scan,https://dc.lft.to/lastmile_qr_scan,NO,NO,15,"KEY,CREDITCARD",42,DCA-CABI,,38.82373,-77.00223,2024/04/01 01:52:28+00,172451670
-77.3418208429094,38.9832106093878,North Village and Park Garden,classic,c0ec45a3-ec59-4c82-9671-13d9c122be30,,2024/04/01 01:49:52+00,5,0,7,3,0,YES,YES,YES,YES,https://dc.lft.to/lastmile_qr_scan,https://dc.lft.to/lastmile_qr_scan,NO,NO,12,"KEY,CREDITCARD",104,DCA-CABI,,38.983199,-77.341823,2024/04/01 01:52:28+00,172451671
-77.0221932167093,38.8972914466804,7th & F St NW / National Portrait Gallery,classic,0824c772-1f3f-11e7-bf6b-3863bb334450,,2024/04/01 01:50:02+00,31,0,3,0,1,YES,YES,YES,YES,https://dc.lft.to/lastmile_qr_scan,https://dc.lft.to/lastmile_qr_scan,NO,NO,35,"KEY,CREDITCARD",42,DCA-CABI,,38.897283,-77.022191,2024/04/01 01:52:28+00,172451672
-76.994895296586,38.8999509106989,8th & H St NE,classic,fbbeab20-556d-4275-98a9-f84d316c157f,,2024/04/01 01:50:02+00,8,0,9,1,2,YES,YES,YES,YES,https://dc.lft.to/lastmile_qr_scan,https://dc.lft.to/lastmile_qr_scan,NO,NO,19,"KEY,CREDITCARD",42,DCA-CABI,,38.899942,-76.994897,2024/04/01 01:52:28+00,172451673
-77.0494417713798,38.7930734033675,Mt Vernon Trail & S. Washington St.,classic,8d8a3add-40b4-41ba-bffe-5a754ebc1625,,2024/04/01 01:50:02+00,5,0,9,2,1,YES,YES,YES,YES,https://dc.lft.to/lastmile_qr_scan,https://dc.lft.to/lastmile_qr_scan,NO,NO,15,"KEY,CREDITCARD",40,DCA-CABI,,38.793065,-77.049436,2024/04/01 01:52:28+00,172451674
-77.080590450225,38.9461899836221,Yuma St & Tenley Circle NW,classic,0826139b-1f3f-11e7-bf6b-3863bb334450,,2024/04/01 01:50:03+00,19,0,0,0,0,YES,YES,YES,YES,https://dc.lft.to/lastmile_qr_scan,https://dc.lft.to/lastmile_qr_scan,NO,NO,19,"KEY,CREDITCARD",42,DCA-CABI,,38.946182,-77.08059,2024/04/01 01:52:28+00,172451675
-77.0031377315963,38.894978362806,2nd St & Massachusetts Ave NE,classic,08261e7a-1f3f-11e7-bf6b-3863bb334450,,2024/04/01 01:50:05+00,17,0,5,1,1,YES,YES,YES,YES,https://dc.lft.to/lastmile_qr_scan,https://dc.lft.to/lastmile_qr_scan,NO,NO,23,"KEY,CREDITCARD",42,DCA-CABI,,38.894972,-77.003135,2024/04/01 01:52:28+00,172451676
-77.3458816581364,38.9305179662576,Soapstone Dr Convenience Center,classic,85c2fb24-d241-4550-8968-2cdf85462af7,,2024/04/01 01:50:05+00,4,0,8,2,0,YES,YES,YES,YES,https://dc.lft.to/lastmile_qr_scan,https://dc.lft.to/lastmile_qr_scan,NO,NO,12,"KEY,CREDITCARD",104,DCA-CABI,,38.93051,-77.345874,2024/04/01 01:52:28+00,172451677
-77.0136636892482,38.9025806634802,New Jersey Ave & K St NW,classic,082624fc-1f3f-11e7-bf6b-3863bb334450,,2024/04/01 01:50:05+00,20,0,1,1,2,YES,YES,YES,YES,https://dc.lft.to/lastmile_qr_scan,https://dc.lft.to/lastmile_qr_scan,NO,NO,23,"KEY,CREDITCARD",42,DCA-CABI,,38.902571,-77.013667,2024/04/01 01:52:28+00,172451678
-77.0886610613915,38.8406600501322,S Randolph St & Campbell Ave,classic,0825e4d5-1f3f-11e7-bf6b-3863bb334450,,2024/04/01 01:50:05+00,12,0,2,0,0,YES,YES,YES,YES,https://dc.lft.to/lastmile_qr_scan,https://dc.lft.to/lastmile_qr_scan,NO,NO,15,"KEY,CREDITCARD",41,DCA-CABI,,38.840654,-77.088659,2024/04/01 01:52:28+00,172451679
-77.0476407613226,38.9232098562661,Calvert & Biltmore St NW,classic,0824773f-1f3f-11e7-bf6b-3863bb334450,,2024/04/01 01:50:00+00,8,0,14,1,0,YES,YES,YES,YES,https://dc.lft.to/lastmile_qr_scan,https://dc.lft.to/lastmile_qr_scan,NO,NO,23,"KEY,CREDITCARD",42,DCA-CABI,,38.923203,-77.047637,2024/04/01 01:52:28+00,172451680
-77.0743261875801,38.9126201462335,Reservoir Rd & 38th St NW,classic,7a19d0e7-2b3c-4805-b843-1aec84a05bfe,,2024/04/01 01:50:04+00,19,0,0,0,0,YES,YES,YES,YES,https://dc.lft.to/lastmile_qr_scan,https://dc.lft.to/lastmile_qr_scan,NO,NO,19,"KEY,CREDITCARD",42,DCA-CABI,,38.912614,-77.074323,2024/04/01 01:52:28+00,172451681
-77.0529273987057,38.8056567626499,Commerce St & Fayette St,classic,08253b95-1f3f-11e7-bf6b-3863bb334450,,2024/04/01 01:50:08+00,3,0,12,3,0,YES,YES,YES,YES,https://dc.lft.to/lastmile_qr_scan,https://dc.lft.to/lastmile_qr_scan,NO,NO,15,"KEY,CREDITCARD",40,DCA-CABI,,38.805648,-77.05293,2024/04/01 01:52:28+00,172451682
-77.1958492255644,38.8769235345999,Route 29 & Bisvey Dr,classic,f0101beb-a103-46e4-93f5-c7880b85411b,,2024/04/01 01:50:09+00,4,0,8,3,0,YES,YES,YES,YES,https://dc.lft.to/lastmile_qr_scan,https://dc.lft.to/lastmile_qr_scan,NO,NO,12,"KEY,CREDITCARD",104,DCA-CABI,,38.876912,-77.195847,2024/04/01 01:52:28+00,172451683
-77.1061183133253,38.8373123543133,N Hampton Dr & Ford Ave,classic,e456b38d-7f5e-4d06-b2bc-022b42097a06,,2024/04/01 01:50:13+00,8,0,3,0,0,YES,YES,YES,YES,https://dc.lft.to/lastmile_qr_scan,https://dc.lft.to/lastmile_qr_scan,NO,NO,11,"KEY,CREDITCARD",40,DCA-CABI,,38.837306,-77.106111,2024/04/01 01:52:28+00,172451684
-77.0436837531382,38.9206800630821,Columbia Rd & Belmont St NW,classic,0824f461-1f3f-11e7-bf6b-3863bb334450,,2024/04/01 01:50:11+00,13,0,5,2,1,YES,YES,YES,YES,https://dc.lft.to/lastmile_qr_scan,https://dc.lft.to/lastmile_qr_scan,NO,NO,19,"KEY,CREDITCARD",42,DCA-CABI,,38.920669,-77.04368,2024/04/01 01:52:28+00,172451685
-77.0675264711829,38.9037420413097,34th & Water St NW,classic,0825f3d4-1f3f-11e7-bf6b-3863bb334450,,2024/04/01 01:51:09+00,11,0,8,0,0,YES,YES,YES,YES,https://dc.lft.to/lastmile_qr_scan,https://dc.lft.to/lastmile_qr_scan,NO,NO,19,"KEY,CREDITCARD",42,DCA-CABI,,38.903732,-77.067529,2024/04/01 01:52:28+00,172451686
-77.0660816710333,38.9121926995,33rd St & Wisconsin Ave NW,classic,1926924117062925284,,2024/04/01 01:48:16+00,13,0,6,1,0,YES,YES,YES,YES,https://dc.lft.to/lastmile_qr_scan,https://dc.lft.to/lastmile_qr_scan,NO,NO,19,"KEY,CREDITCARD",,DCA-CABI,,38.912181,-77.066074,2024/04/01 01:52:28+00,172451687
-77.0064766801724,38.977944657977,Carroll & Ethan Allen Ave,classic,0825b1a2-1f3f-11e7-bf6b-3863bb334450,,2024/04/01 01:48:56+00,3,0,12,0,0,YES,YES,YES,YES,https://dc.lft.to/lastmile_qr_scan,https://dc.lft.to/lastmile_qr_scan,NO,NO,15,"KEY,CREDITCARD",44,DCA-CABI,,38.977933,-77.006472,2024/04/01 01:52:28+00,172451688
-76.9771926237082,38.8854903587914,Stadium Armory Metro,classic,e9611824-0245-4482-bc8b-970c0eface40,,2024/04/01 01:49:11+00,17,0,2,0,0,YES,YES,YES,YES,https://dc.lft.to/lastmile_qr_scan,https://dc.lft.to/lastmile_qr_scan,NO,NO,19,"KEY,CREDITCARD",42,DCA-CABI,,38.885483,-76.977187,2024/04/01 01:52:28+00,172451689
-77.1621172409272,38.8871547275415,W&OD Trail & Langston Blvd,classic,5982cdb9-2f4d-490f-8e7c-030adfac87be,,2024/04/01 01:49:11+00,6,1,7,0,1,YES,YES,YES,YES,https://dc.lft.to/lastmile_qr_scan,https://dc.lft.to/lastmile_qr_scan,NO,NO,15,"KEY,CREDITCARD",41,DCA-CABI,,38.88715,-77.16212,2024/04/01 01:52:28+00,172451690
-77.0238982997208,38.9974541749228,Veterans Pl & Pershing Dr ,classic,0825e0a1-1f3f-11e7-bf6b-3863bb334450,,2024/04/01 01:49:13+00,3,0,7,6,1,YES,YES,YES,YES,https://dc.lft.to/lastmile_qr_scan,https://dc.lft.to/lastmile_qr_scan,NO,NO,11,"KEY,CREDITCARD",44,DCA-CABI,,38.997445,-77.023894,2024/04/01 01:52:28+00,172451691
-77.0952539746081,38.8870212015171,Clarendon Metro / Wilson Blvd & N Highland St,classic,0824ff6e-1f3f-11e7-bf6b-3863bb334450,,2024/04/01 01:49:13+00,7,0,14,4,0,YES,YES,YES,YES,https://dc.lft.to/lastmile_qr_scan,https://dc.lft.to/lastmile_qr_scan,NO,NO,21,"KEY,CREDITCARD",41,DCA-CABI,,38.88701,-77.095257,2024/04/01 01:52:28+00,172451692
-77.1093335327777,39.049004188511,Citadel Ave & McGrath Blvd,classic,97506e92-1d23-4396-8ec8-e1901ccc22fa,,2024/04/01 01:49:13+00,6,0,9,1,0,YES,YES,YES,YES,https://dc.lft.to/lastmile_qr_scan,https://dc.lft.to/lastmile_qr_scan,NO,NO,15,"KEY,CREDITCARD",43,DCA-CABI,,39.049,-77.10933,2024/04/01 01:52:28+00,172451693
-77.0333862848098,38.8964690225048,15th St & Pennsylvania Ave NW,classic,3d461075-4edb-497f-89d7-b7beb7595b20,,2024/04/01 01:49:14+00,16,0,2,1,1,YES,YES,YES,YES,https://dc.lft.to/lastmile_qr_scan,https://dc.lft.to/lastmile_qr_scan,NO,NO,19,"KEY,CREDITCARD",42,DCA-CABI,,38.896465,-77.033381,2024/04/01 01:52:28+00,172451694
-77.0699632348337,38.9550249392892,Connecticut & Nebraska Ave NW,classic,08254ffb-1f3f-11e7-bf6b-3863bb334450,,2024/04/01 01:49:14+00,5,0,16,3,1,YES,YES,YES,YES,https://dc.lft.to/lastmile_qr_scan,https://dc.lft.to/lastmile_qr_scan,NO,NO,23,"KEY,CREDITCARD",42,DCA-CABI,,38.955016,-77.069956,2024/04/01 01:52:28+00,172451695
-77.1145596220161,38.879481852662,Wilson Blvd & N Vermont St,classic,72c402d9-63d9-4025-95a9-1577a34e5f52,,2024/04/01 01:49:19+00,2,0,10,1,0,YES,YES,YES,YES,https://dc.lft.to/lastmile_qr_scan,https://dc.lft.to/lastmile_qr_scan,NO,NO,12,"KEY,CREDITCARD",41,DCA-CABI,,38.879477,-77.114563,2024/04/01 01:52:28+00,172451696
-77.3576085922496,38.955345739437,Sunset Hills Rd & Discovery Square,classic,08263bd6-1f3f-11e7-bf6b-3863bb334450,,2024/04/01 01:49:19+00,12,0,3,0,0,YES,YES,YES,YES,https://dc.lft.to/lastmile_qr_scan,https://dc.lft.to/lastmile_qr_scan,NO,NO,15,"KEY,CREDITCARD",104,DCA-CABI,,38.95534,-77.357611,2024/04/01 01:52:28+00,172451697
-77.1129878317399,38.8766997877076,Carlin Springs Rd & N Thomas St,classic,08264392-1f3f-11e7-bf6b-3863bb334450,,2024/04/01 01:49:20+00,10,0,5,1,0,YES,YES,YES,YES,https://dc.lft.to/lastmile_qr_scan,https://dc.lft.to/lastmile_qr_scan,NO,NO,15,"KEY,CREDITCARD",41,DCA-CABI,,38.876695,-77.112982,2024/04/01 01:52:28+00,172451698
-77.1071447477926,39.0147212704552,Pooks Hill Rd & Linden Ave,classic,08264525-1f3f-11e7-bf6b-3863bb334450,,2024/04/01 01:49:21+00,6,0,9,3,0,YES,YES,YES,YES,https://dc.lft.to/lastmile_qr_scan,https://dc.lft.to/lastmile_qr_scan,NO,NO,15,"KEY,CREDITCARD",44,DCA-CABI,,39.014716,-77.107143,2024/04/01 01:52:28+00,172451699
-77.068120842533,38.8621589693369,Army Navy Dr & S Nash St,classic,0826029e-1f3f-11e7-bf6b-3863bb334450,,2024/04/01 01:49:19+00,10,0,1,0,0,YES,YES,YES,YES,https://dc.lft.to/lastmile_qr_scan,https://dc.lft.to/lastmile_qr_scan,NO,NO,11,"KEY,CREDITCARD",41,DCA-CABI,,38.86215,-77.068121,2024/04/01 01:52:28+00,172451700
-76.9709368205825,38.8787777199039,Anacostia Roller Skating Pavilion,classic,d2a6b8ef-0d6d-4037-84e4-b905142031fa,,2024/04/01 01:49:22+00,13,0,5,0,0,YES,YES,YES,YES,https://dc.lft.to/lastmile_qr_scan,https://dc.lft.to/lastmile_qr_scan,NO,NO,19,"KEY,CREDITCARD",42,DCA-CABI,,38.878771,-76.97093,2024/04/01 01:52:28+00,172451701
-77.0510970335839,39.0473325544279,Wheaton Library & Community Rec Center,classic,2f12b7e0-a0f1-49ed-92d8-784133ea9168,,2024/04/01 01:49:17+00,4,0,7,2,0,YES,YES,YES,YES,https://dc.lft.to/lastmile_qr_scan,https://dc.lft.to/lastmile_qr_scan,NO,NO,11,"KEY,CREDITCARD",44,DCA-CABI,,39.047323,-77.051097,2024/04/01 01:52:28+00,172451702
-76.9858550064512,38.9110034133524,Capitol Ave & Kendall St NE,classic,336a1fe2-8e92-49ad-ab6a-c6c392d3edcd,,2024/04/01 01:49:17+00,1,0,17,2,1,YES,YES,YES,YES,https://dc.lft.to/lastmile_qr_scan,https://dc.lft.to/lastmile_qr_scan,NO,NO,19,"KEY,CREDITCARD",42,DCA-CABI,,38.910993,-76.985854,2024/04/01 01:52:28+00,172451703
-77.0316931329347,38.8996404382794,14th St & New York Ave NW,classic,08249aa2-1f3f-11e7-bf6b-3863bb334450,,2024/04/01 01:49:16+00,29,0,2,1,0,YES,YES,YES,YES,https://dc.lft.to/lastmile_qr_scan,https://dc.lft.to/lastmile_qr_scan,NO,NO,31,"KEY,CREDITCARD",42,DCA-CABI,,38.899632,-77.031686,2024/04/01 01:52:28+00,172451704
-77.0435989882191,38.8952044856205,19th & E Street NW,classic,082482b3-1f3f-11e7-bf6b-3863bb334450,,2024/04/01 01:49:24+00,8,0,3,1,0,YES,YES,YES,YES,https://dc.lft.to/lastmile_qr_scan,https://dc.lft.to/lastmile_qr_scan,NO,NO,11,"KEY,CREDITCARD",42,DCA-CABI,,38.8952,-77.0436,2024/04/01 01:52:28+00,172451705
-77.0478457642471,38.8334411169982,Potomac Yard Metro South,classic,1869388517211023780,,2024/04/01 01:49:24+00,10,0,5,4,0,YES,YES,YES,YES,https://dc.lft.to/lastmile_qr_scan,https://dc.lft.to/lastmile_qr_scan,NO,NO,15,"KEY,CREDITCARD",,DCA-CABI,,38.833437,-77.047846,2024/04/01 01:52:28+00,172451706
-77.1093667373615,38.8826397699142,Fairfax Dr & N Randolph St,classic,0825275b-1f3f-11e7-bf6b-3863bb334450,,2024/04/01 01:49:30+00,8,0,7,1,0,YES,YES,YES,YES,https://dc.lft.to/lastmile_qr_scan,https://dc.lft.to/lastmile_qr_scan,NO,NO,15,"KEY,CREDITCARD",41,DCA-CABI,,38.882629,-77.109366,2024/04/01 01:52:28+00,172451707
-77.0608702630213,38.804382689832,Duke St & John Carlyle St,classic,0825f465-1f3f-11e7-bf6b-3863bb334450,,2024/04/01 01:49:28+00,10,0,4,1,0,YES,YES,YES,YES,https://dc.lft.to/lastmile_qr_scan,https://dc.lft.to/lastmile_qr_scan,NO,NO,15,"KEY,CREDITCARD",40,DCA-CABI,,38.804378,-77.060866,2024/04/01 01:52:28+00,172451708
-77.0019617294152,38.8873843288679,3rd St & Pennsylvania Ave SE,classic,08256a59-1f3f-11e7-bf6b-3863bb334450,,2024/04/01 01:49:29+00,10,0,3,0,1,YES,YES,YES,YES,https://dc.lft.to/lastmile_qr_scan,https://dc.lft.to/lastmile_qr_scan,NO,NO,15,"KEY,CREDITCARD",42,DCA-CABI,,38.887378,-77.001955,2024/04/01 01:52:28+00,172451709
-77.2228102747454,38.8786048254032,Hartland Rd & Harte Pl,classic,c271d265-76c8-49f9-9b3c-b9490fb97ac0,,2024/04/01 01:49:25+00,2,0,9,0,0,YES,YES,YES,YES,https://dc.lft.to/lastmile_qr_scan,https://dc.lft.to/lastmile_qr_scan,NO,NO,11,"KEY,CREDITCARD",104,DCA-CABI,,38.878601,-77.222808,2024/04/01 01:52:28+00,172451710
-76.9961385931032,38.9322548435552,7th & Monroe St NE,classic,066fd95e-0d37-4eea-a027-88c04277bb9d,,2024/04/01 01:50:08+00,7,0,8,3,0,YES,YES,YES,YES,https://dc.lft.to/lastmile_qr_scan,https://dc.lft.to/lastmile_qr_scan,NO,NO,15,"KEY,CREDITCARD",42,DCA-CABI,,38.932243,-76.996133,2024/04/01 01:52:28+00,172451711
-77.0119175641298,38.8708353184257,1st & Q St SW,classic,84a0159b-5f00-417a-8f06-6c7c8437049f,,2024/04/01 01:50:07+00,12,0,2,2,1,YES,YES,YES,YES,https://dc.lft.to/lastmile_qr_scan,https://dc.lft.to/lastmile_qr_scan,NO,NO,15,"KEY,CREDITCARD",42,DCA-CABI,,38.870824,-77.011915,2024/04/01 01:52:28+00,172451712
-77.3386881790362,38.9700496019126,North Shore & Cameron Crescent Dr/Crescent Apartments,classic,0826380c-1f3f-11e7-bf6b-3863bb334450,,2024/04/01 01:50:05+00,7,0,4,1,0,YES,YES,YES,YES,https://dc.lft.to/lastmile_qr_scan,https://dc.lft.to/lastmile_qr_scan,NO,NO,11,"KEY,CREDITCARD",104,DCA-CABI,,38.970046,-77.338686,2024/04/01 01:52:28+00,172451713
-77.1031547773468,38.8827985643867,Virginia Square Metro / Monroe St & 9th St N,classic,082520aa-1f3f-11e7-bf6b-3863bb334450,,2024/04/01 01:50:05+00,14,0,5,1,0,YES,YES,YES,YES,https://dc.lft.to/lastmile_qr_scan,https://dc.lft.to/lastmile_qr_scan,NO,NO,19,"KEY,CREDITCARD",41,DCA-CABI,,38.882788,-77.103148,2024/04/01 01:52:28+00,172451714
-77.1660935813504,39.1197765714421,Shady Grove Metro West,classic,0825e56c-1f3f-11e7-bf6b-3863bb334450,,2024/04/01 01:50:09+00,16,0,2,0,1,YES,YES,YES,YES,https://dc.lft.to/lastmile_qr_scan,https://dc.lft.to/lastmile_qr_scan,NO,NO,19,"KEY,CREDITCARD",43,DCA-CABI,,39.119765,-77.166093,2024/04/01 01:52:28+00,172451715
-77.0763926261842,38.8934490265601,Clarendon Blvd & Pierce St,classic,0824eba7-1f3f-11e7-bf6b-3863bb334450,,2024/04/01 01:50:09+00,10,0,4,0,0,YES,YES,YES,YES,https://dc.lft.to/lastmile_qr_scan,https://dc.lft.to/lastmile_qr_scan,NO,NO,15,"KEY,CREDITCARD",41,DCA-CABI,,38.893438,-77.076389,2024/04/01 01:52:28+00,172451716
-77.0077969838468,38.9150037115803,Lincoln Rd & Seaton Pl NE/Harry Thomas Rec Center,classic,6d5ad96d-a704-4fa6-8b65-3ac643c5aa93,,2024/04/01 01:50:09+00,16,0,3,3,0,YES,YES,YES,YES,https://dc.lft.to/lastmile_qr_scan,https://dc.lft.to/lastmile_qr_scan,NO,NO,19,"KEY,CREDITCARD",42,DCA-CABI,,38.915,-77.0078,2024/04/01 01:52:28+00,172451717
-77.107835876508,38.8839744355871,Central Library / Quincy St & 10th St N,classic,0825213e-1f3f-11e7-bf6b-3863bb334450,,2024/04/01 01:50:09+00,8,0,4,0,0,YES,YES,YES,YES,https://dc.lft.to/lastmile_qr_scan,https://dc.lft.to/lastmile_qr_scan,NO,NO,12,"KEY,CREDITCARD",41,DCA-CABI,,38.88397,-77.10783,2024/04/01 01:52:28+00,172451718
-77.0198119068691,38.9565665918857,5th & Kennedy St NW,classic,082547de-1f3f-11e7-bf6b-3863bb334450,,2024/04/01 01:50:17+00,1,0,14,0,0,YES,YES,YES,YES,https://dc.lft.to/lastmile_qr_scan,https://dc.lft.to/lastmile_qr_scan,NO,NO,15,"KEY,CREDITCARD",42,DCA-CABI,,38.956556,-77.019814,2024/04/01 01:52:28+00,172451719
-77.1564308430191,38.8853247690472,East Falls Church Metro / Sycamore St & 19th St N,classic,08261f4b-1f3f-11e7-bf6b-3863bb334450,,2024/04/01 01:50:17+00,12,0,4,1,1,YES,YES,YES,YES,https://dc.lft.to/lastmile_qr_scan,https://dc.lft.to/lastmile_qr_scan,NO,NO,19,"KEY,CREDITCARD",41,DCA-CABI,,38.885321,-77.156427,2024/04/01 01:52:28+00,172451720
-77.0036682331742,38.8996807136618,2nd & G St NE,classic,082604dd-1f3f-11e7-bf6b-3863bb334450,,2024/04/01 01:50:16+00,7,0,15,1,0,YES,YES,YES,YES,https://dc.lft.to/lastmile_qr_scan,https://dc.lft.to/lastmile_qr_scan,NO,NO,23,"KEY,CREDITCARD",42,DCA-CABI,,38.89967,-77.003666,2024/04/01 01:52:28+00,172451721
-77.3292801640051,38.9668514995887,Becontree Ln & Goldenrain Ct,classic,e976c0ab-bc21-42b3-a2c2-b90def6f54f4,,2024/04/01 01:50:18+00,3,0,9,0,0,YES,YES,YES,YES,https://dc.lft.to/lastmile_qr_scan,https://dc.lft.to/lastmile_qr_scan,NO,NO,12,"KEY,CREDITCARD",104,DCA-CABI,,38.966848,-77.329282,2024/04/01 01:52:28+00,172451722
-77.1452160598871,39.0947801385674,Frederick Ave & Horners Ln,classic,08258475-1f3f-11e7-bf6b-3863bb334450,,2024/04/01 01:49:08+00,6,0,3,0,0,YES,YES,YES,YES,https://dc.lft.to/lastmile_qr_scan,https://dc.lft.to/lastmile_qr_scan,NO,NO,9,"KEY,CREDITCARD",43,DCA-CABI,,39.094772,-77.145213,2024/04/01 01:52:28+00,172451723
-76.843269477218,38.9083948303417,1301 McCormick Dr / Wayne K. Curry Admin Bldg,classic,987decdd-577d-4614-a6eb-307944a634b4,,2024/04/01 01:49:10+00,6,0,9,0,0,YES,YES,YES,YES,https://dc.lft.to/lastmile_qr_scan,https://dc.lft.to/lastmile_qr_scan,NO,NO,15,"KEY,CREDITCARD",133,DCA-CABI,,38.908391,-76.843263,2024/04/01 01:52:28+00,172451724
-76.9601166568663,38.8965480615883,Anacostia Ave & Benning Rd NE / River Terrace ,classic,082518eb-1f3f-11e7-bf6b-3863bb334450,,2024/04/01 01:49:10+00,12,0,3,1,0,YES,YES,YES,YES,https://dc.lft.to/lastmile_qr_scan,https://dc.lft.to/lastmile_qr_scan,NO,NO,15,"KEY,CREDITCARD",42,DCA-CABI,,38.896544,-76.96012,2024/04/01 01:52:28+00,172451725
-77.2335880818005,38.8792593975702,Dorr Ave & Prosperity Ave,classic,1890204129337198944,,2024/04/01 01:50:22+00,6,0,5,0,0,YES,YES,YES,YES,https://dc.lft.to/lastmile_qr_scan,https://dc.lft.to/lastmile_qr_scan,NO,NO,11,"KEY,CREDITCARD",,DCA-CABI,,38.879256,-77.233583,2024/04/01 01:52:28+00,172451726
-76.9835752494152,38.8972023171806,15th & F St NE,classic,0825610d-1f3f-11e7-bf6b-3863bb334450,,2024/04/01 01:50:20+00,6,0,12,3,1,YES,YES,YES,YES,https://dc.lft.to/lastmile_qr_scan,https://dc.lft.to/lastmile_qr_scan,NO,NO,19,"KEY,CREDITCARD",42,DCA-CABI,,38.897195,-76.983575,2024/04/01 01:52:28+00,172451727
-77.0510849791112,38.9017595407398,New Hampshire Ave & 24th St NW,classic,0825f723-1f3f-11e7-bf6b-3863bb334450,,2024/04/01 01:50:24+00,5,0,12,0,0,YES,YES,YES,YES,https://dc.lft.to/lastmile_qr_scan,https://dc.lft.to/lastmile_qr_scan,NO,NO,19,"KEY,CREDITCARD",42,DCA-CABI,,38.901755,-77.051084,2024/04/01 01:52:28+00,172451728
-77.0721429311417,38.8972262357998,19th St N & Ft Myer Dr,classic,0824ea2c-1f3f-11e7-bf6b-3863bb334450,,2024/04/01 01:50:21+00,3,0,11,2,1,YES,YES,YES,YES,https://dc.lft.to/lastmile_qr_scan,https://dc.lft.to/lastmile_qr_scan,NO,NO,15,"KEY,CREDITCARD",41,DCA-CABI,,38.897218,-77.072143,2024/04/01 01:52:28+00,172451729
-77.3535489777337,38.9440165807236,Golf Course Sq and Golf Course Dr,classic,13c42471-96ab-441d-9a4c-bc57f7af6f9b,,2024/04/01 01:50:21+00,2,0,10,0,0,YES,YES,YES,YES,https://dc.lft.to/lastmile_qr_scan,https://dc.lft.to/lastmile_qr_scan,NO,NO,12,"KEY,CREDITCARD",104,DCA-CABI,,38.944013,-77.353552,2024/04/01 01:52:28+00,172451730
-77.1689097234822,38.7669539025832,Franconia-Springfield Metro North,classic,1917259666206632502,,2024/04/01 01:50:21+00,8,0,10,0,1,YES,YES,YES,YES,https://dc.lft.to/lastmile_qr_scan,https://dc.lft.to/lastmile_qr_scan,NO,NO,19,"KEY,CREDITCARD",,DCA-CABI,,38.766946,-77.168902,2024/04/01 01:52:28+00,172451731
-77.0207918093094,38.8748247980938,Waterfront Park,classic,94b1507c-7f76-483c-b06a-a4131e0b5970,,2024/04/01 01:50:19+00,8,0,11,1,0,YES,YES,YES,YES,https://dc.lft.to/lastmile_qr_scan,https://dc.lft.to/lastmile_qr_scan,NO,NO,19,"KEY,CREDITCARD",42,DCA-CABI,,38.874821,-77.020788,2024/04/01 01:52:28+00,172451732
-77.3033493548295,38.8469838454508,Blenheim Blvd & North St,classic,1874573898176678104,,2024/04/01 01:50:25+00,5,0,7,0,0,YES,YES,YES,YES,https://dc.lft.to/lastmile_qr_scan,https://dc.lft.to/lastmile_qr_scan,NO,NO,12,"KEY,CREDITCARD",,DCA-CABI,,38.846972,-77.303349,2024/04/01 01:52:28+00,172451733
-77.3484920337213,38.9667057384444,Vantage Hill Rd & Wainwright Dr,classic,8d68e4db-0bc9-440a-9b27-5d34ed1b93c9,,2024/04/01 01:50:25+00,9,0,3,0,0,YES,YES,YES,YES,https://dc.lft.to/lastmile_qr_scan,https://dc.lft.to/lastmile_qr_scan,NO,NO,12,"KEY,CREDITCARD",104,DCA-CABI,,38.9667,-77.348487,2024/04/01 01:52:28+00,172451734
-76.9959215966098,38.8948522167208,D St & Maryland Ave NE,classic,0824a703-1f3f-11e7-bf6b-3863bb334450,,2024/04/01 01:50:30+00,7,0,14,7,2,YES,YES,YES,YES,https://dc.lft.to/lastmile_qr_scan,https://dc.lft.to/lastmile_qr_scan,NO,NO,23,"KEY,CREDITCARD",42,DCA-CABI,,38.894841,-76.995916,2024/04/01 01:52:28+00,172451735
-77.0283977535695,38.9038301723004,12th & L St NW,classic,082537e4-1f3f-11e7-bf6b-3863bb334450,,2024/04/01 01:50:31+00,1,1,15,3,0,YES,YES,YES,YES,https://dc.lft.to/lastmile_qr_scan,https://dc.lft.to/lastmile_qr_scan,NO,NO,19,"KEY,CREDITCARD",42,DCA-CABI,,38.903819,-77.0284,2024/04/01 01:52:28+00,172451736
-77.0326889597728,38.9344123287107,14th & Otis Pl NW,classic,2a43f4e2-4102-482e-8879-245cf7555c6b,,2024/04/01 01:50:31+00,10,0,16,2,0,YES,YES,YES,YES,https://dc.lft.to/lastmile_qr_scan,https://dc.lft.to/lastmile_qr_scan,NO,NO,27,"KEY,CREDITCARD",42,DCA-CABI,,38.934405,-77.032687,2024/04/01 01:52:28+00,172451737
-77.0528073562549,38.8145842363064,Braddock Rd Metro North,classic,08253c6b-1f3f-11e7-bf6b-3863bb334450,,2024/04/01 01:50:27+00,26,0,3,1,0,YES,YES,YES,YES,https://dc.lft.to/lastmile_qr_scan,https://dc.lft.to/lastmile_qr_scan,NO,NO,29,"KEY,CREDITCARD",40,DCA-CABI,,38.814577,-77.052808,2024/04/01 01:52:28+00,172451738
-77.0945420043467,38.9846988246722,Bethesda Metro / Wisconsin Ave & Old Georgetown Rd,classic,0825f2b1-1f3f-11e7-bf6b-3863bb334450,,2024/04/01 01:50:27+00,10,0,1,0,0,YES,YES,YES,YES,https://dc.lft.to/lastmile_qr_scan,https://dc.lft.to/lastmile_qr_scan,NO,NO,12,"KEY,CREDITCARD",44,DCA-CABI,,38.984691,-77.094537,2024/04/01 01:52:28+00,172451739
-77.2406601546871,38.9292685972545,Spring Hill Metro,classic,0826345e-1f3f-11e7-bf6b-3863bb334450,,2024/04/01 01:50:26+00,1,0,14,1,0,YES,YES,YES,YES,https://dc.lft.to/lastmile_qr_scan,https://dc.lft.to/lastmile_qr_scan,NO,NO,15,"KEY,CREDITCARD",104,DCA-CABI,,38.929261,-77.240654,2024/04/01 01:52:28+00,172451740
-77.1299505744132,38.8000831838378,Van Dorn Metro,classic,dfa896d9-9209-413d-b494-e255ef513d2c,,2024/04/01 01:50:31+00,17,0,2,0,0,YES,YES,YES,YES,https://dc.lft.to/lastmile_qr_scan,https://dc.lft.to/lastmile_qr_scan,NO,NO,19,"KEY,CREDITCARD",40,DCA-CABI,,38.800077,-77.129943,2024/04/01 01:52:28+00,172451741
-77.1100129093523,38.815850554202,N Howard St & Taney Ave,classic,cdeeb133-ccd7-418f-a8d7-0b5c5380a8ae,,2024/04/01 01:50:31+00,11,0,3,2,1,YES,YES,YES,YES,https://dc.lft.to/lastmile_qr_scan,https://dc.lft.to/lastmile_qr_scan,NO,NO,15,"KEY,CREDITCARD",40,DCA-CABI,,38.815842,-77.110014,2024/04/01 01:52:28+00,172451742
-77.0230863185261,38.9854103725016,Fenton St & New York Ave ,classic,08257325-1f3f-11e7-bf6b-3863bb334450,,2024/04/01 01:50:32+00,9,0,6,1,0,YES,YES,YES,YES,https://dc.lft.to/lastmile_qr_scan,https://dc.lft.to/lastmile_qr_scan,NO,NO,15,"KEY,CREDITCARD",44,DCA-CABI,,38.985404,-77.023082,2024/04/01 01:52:28+00,172451743
-77.1718987114136,38.88061865852,E Fairfax St & S Washington St,classic,6e652351-dad9-45e4-a0a7-dda0417973f4,,2024/04/01 01:50:23+00,6,0,6,0,0,YES,YES,YES,YES,https://dc.lft.to/lastmile_qr_scan,https://dc.lft.to/lastmile_qr_scan,NO,NO,12,"KEY,CREDITCARD",152,DCA-CABI,,38.880612,-77.171891,2024/04/01 01:52:28+00,172451744
-77.0599402863729,38.8623075903488,Pentagon City Metro / 12th St & S Hayes St,classic,08246df5-1f3f-11e7-bf6b-3863bb334450,,2024/04/01 01:50:37+00,4,0,13,8,2,YES,YES,YES,YES,https://dc.lft.to/lastmile_qr_scan,https://dc.lft.to/lastmile_qr_scan,NO,NO,19,"KEY,CREDITCARD",41,DCA-CABI,,38.862303,-77.059936,2024/04/01 01:52:28+00,172451745
-77.0971325949114,38.8953884388611,Langston Blvd & N Kirkwood Rd,classic,0825ff8d-1f3f-11e7-bf6b-3863bb334450,,2024/04/01 01:50:37+00,4,0,11,2,0,YES,YES,YES,YES,https://dc.lft.to/lastmile_qr_scan,https://dc.lft.to/lastmile_qr_scan,NO,NO,15,"KEY,CREDITCARD",41,DCA-CABI,,38.895377,-77.09713,2024/04/01 01:52:28+00,172451746
-77.0326811258915,38.9424837648343,14th & Upshur St NW,classic,08254943-1f3f-11e7-bf6b-3863bb334450,,2024/04/01 01:50:37+00,2,0,17,0,0,YES,YES,YES,YES,https://dc.lft.to/lastmile_qr_scan,https://dc.lft.to/lastmile_qr_scan,NO,NO,19,"KEY,CREDITCARD",42,DCA-CABI,,38.942475,-77.032678,2024/04/01 01:52:28+00,172451747
-77.0891374384522,38.8624060602796,Columbia Pike & S Highland St,classic,08260472-1f3f-11e7-bf6b-3863bb334450,,2024/04/01 01:50:34+00,9,0,3,2,0,YES,YES,YES,YES,https://dc.lft.to/lastmile_qr_scan,https://dc.lft.to/lastmile_qr_scan,NO,NO,12,"KEY,CREDITCARD",41,DCA-CABI,,38.862398,-77.089133,2024/04/01 01:52:28+00,172451748
-76.946363064545,38.9593665468769,Oglethorpe St & 42nd Ave,classic,42ad2bc8-22b5-40f2-8a56-e562e4ecde07,,2024/04/01 01:50:34+00,5,0,10,3,0,YES,YES,YES,YES,https://dc.lft.to/lastmile_qr_scan,https://dc.lft.to/lastmile_qr_scan,NO,NO,15,"KEY,CREDITCARD",133,DCA-CABI,,38.959361,-76.946361,2024/04/01 01:52:28+00,172451749
-77.0137759634374,38.8869871639939,Washington & Independence Ave SW/HHS,classic,08256e11-1f3f-11e7-bf6b-3863bb334450,,2024/04/01 01:50:33+00,3,0,25,8,3,YES,YES,YES,YES,https://dc.lft.to/lastmile_qr_scan,https://dc.lft.to/lastmile_qr_scan,NO,NO,31,"KEY,CREDITCARD",42,DCA-CABI,,38.886978,-77.013769,2024/04/01 01:52:28+00,172451750
-77.0608983194935,38.8372906573689,Reed & Edison,classic,febec658-2bcd-473e-8ba8-f84f016da7cd,,2024/04/01 01:50:35+00,4,0,7,0,0,YES,YES,YES,YES,https://dc.lft.to/lastmile_qr_scan,https://dc.lft.to/lastmile_qr_scan,NO,NO,11,"KEY,CREDITCARD",40,DCA-CABI,,38.83728,-77.060899,2024/04/01 01:52:28+00,172451751
-77.0303730086023,38.9940385675355,Silver Spring Transit Center - Top Level,classic,0825b553-1f3f-11e7-bf6b-3863bb334450,,2024/04/01 01:50:35+00,14,0,1,1,0,YES,YES,YES,YES,https://dc.lft.to/lastmile_qr_scan,https://dc.lft.to/lastmile_qr_scan,NO,NO,15,"KEY,CREDITCARD",44,DCA-CABI,,38.994035,-77.030371,2024/04/01 01:52:28+00,172451752
-77.2307738145439,38.8785803523686,Merrilee Dr & Lauren Elizabeth Lane,classic,a77b8993-6d68-425e-a37a-0e613a7cb17a,,2024/03/31 18:02:58+00,11,0,0,0,0,YES,NO,NO,YES,https://dc.lft.to/lastmile_qr_scan,https://dc.lft.to/lastmile_qr_scan,NO,NO,11,"KEY,CREDITCARD",104,DCA-CABI,,38.878572,-77.230766,2024/04/01 01:52:28+00,172451753
-77.0018347823605,38.8811955702332,3rd & G St SE,classic,08251448-1f3f-11e7-bf6b-3863bb334450,,2024/04/01 01:50:41+00,8,0,10,1,1,YES,YES,YES,YES,https://dc.lft.to/lastmile_qr_scan,https://dc.lft.to/lastmile_qr_scan,NO,NO,19,"KEY,CREDITCARD",42,DCA-CABI,,38.881185,-77.001828,2024/04/01 01:52:28+00,172451754
-77.045638977447,38.9126528900727,Connecticut Ave & R St NW,classic,a2507ccc-aca1-48b2-a6a3-a3144ad92d21,,2024/04/01 01:50:40+00,0,0,19,3,0,YES,YES,YES,YES,https://dc.lft.to/lastmile_qr_scan,https://dc.lft.to/lastmile_qr_scan,NO,NO,19,"KEY,CREDITCARD",42,DCA-CABI,,38.912644,-77.04564,2024/04/01 01:52:28+00,172451755
-77.0121069504216,38.9003647791389,1st & H St NW,classic,0825e1e5-1f3f-11e7-bf6b-3863bb334450,,2024/04/01 01:50:44+00,9,0,6,0,0,YES,YES,YES,YES,https://dc.lft.to/lastmile_qr_scan,https://dc.lft.to/lastmile_qr_scan,NO,NO,15,"KEY,CREDITCARD",42,DCA-CABI,,38.900358,-77.012108,2024/04/01 01:52:28+00,172451756
-76.9958739936577,38.9206881559848,Rhode Island Ave Metro,classic,0825e3b0-1f3f-11e7-bf6b-3863bb334450,,2024/04/01 01:50:45+00,13,0,4,3,1,YES,YES,YES,YES,https://dc.lft.to/lastmile_qr_scan,https://dc.lft.to/lastmile_qr_scan,NO,NO,19,"KEY,CREDITCARD",42,DCA-CABI,,38.920682,-76.995876,2024/04/01 01:52:28+00,172451757
-77.2715355445776,38.8691239137343,Route 29 & Circle Woods Dr,classic,1892760823152249488,,2024/04/01 01:50:38+00,11,0,0,0,0,YES,YES,YES,YES,https://dc.lft.to/lastmile_qr_scan,https://dc.lft.to/lastmile_qr_scan,NO,NO,11,"KEY,CREDITCARD",,DCA-CABI,,38.869114,-77.271538,2024/04/01 01:52:28+00,172451758
-77.0723200642754,38.8672732254561,Columbia Pike & S Orme St,classic,082569e6-1f3f-11e7-bf6b-3863bb334450,,2024/04/01 01:50:39+00,11,0,0,0,0,YES,YES,YES,YES,https://dc.lft.to/lastmile_qr_scan,https://dc.lft.to/lastmile_qr_scan,NO,NO,11,"KEY,CREDITCARD",41,DCA-CABI,,38.867262,-77.072315,2024/04/01 01:52:28+00,172451759
-76.9541680587669,38.9688465481524,The Mall at Prince Georges,classic,d34d2639-ee43-4892-818f-f01116813744,,2024/04/01 01:50:42+00,2,0,13,0,2,YES,YES,YES,YES,https://dc.lft.to/lastmile_qr_scan,https://dc.lft.to/lastmile_qr_scan,NO,NO,17,"KEY,CREDITCARD",133,DCA-CABI,,38.968842,-76.954171,2024/04/01 01:52:28+00,172451760
-77.3317955002064,38.9593764984046,N Shore Dr & Bandit Loop,classic,1900964406001033780,,2024/04/01 01:50:41+00,2,0,9,0,0,YES,YES,YES,YES,https://dc.lft.to/lastmile_qr_scan,https://dc.lft.to/lastmile_qr_scan,NO,NO,11,"KEY,CREDITCARD",,DCA-CABI,,38.95937,-77.331794,2024/04/01 01:52:28+00,172451761
-77.0480425740679,38.8007132073404,S Washington St & Wilkes St,classic,472dee60-f045-4f2e-9807-193e3ae9b661,,2024/04/01 01:50:41+00,5,0,7,1,0,YES,YES,YES,YES,https://dc.lft.to/lastmile_qr_scan,https://dc.lft.to/lastmile_qr_scan,NO,NO,12,"KEY,CREDITCARD",40,DCA-CABI,,38.800703,-77.048043,2024/04/01 01:52:28+00,172451762
-76.954804687107,38.9657479590938,Prince George's Plaza Metro,classic,ebbf6e18-684d-4fc9-ad4d-c025b8d76556,,2024/04/01 01:50:49+00,12,0,5,2,0,YES,YES,YES,YES,https://dc.lft.to/lastmile_qr_scan,https://dc.lft.to/lastmile_qr_scan,NO,NO,17,"KEY,CREDITCARD",133,DCA-CABI,,38.965742,-76.954803,2024/04/01 01:52:28+00,172451763
-76.9500163119672,38.8831397104491,37th & Ely Pl SE,classic,ee2cb739-9118-4069-b4f7-435ef53db537,,2024/04/01 01:50:50+00,10,0,4,1,1,YES,YES,YES,YES,https://dc.lft.to/lastmile_qr_scan,https://dc.lft.to/lastmile_qr_scan,NO,NO,15,"KEY,CREDITCARD",42,DCA-CABI,,38.883132,-76.950009,2024/04/01 01:52:28+00,172451764
-77.0568774310075,38.8648494967217,Army Navy Dr & Fern St,classic,0a5dbbe0-1325-49af-9fca-f0748ca06dc0,,2024/04/01 01:50:46+00,10,0,5,1,0,YES,YES,YES,YES,https://dc.lft.to/lastmile_qr_scan,https://dc.lft.to/lastmile_qr_scan,NO,NO,15,"KEY,CREDITCARD",41,DCA-CABI,,38.864838,-77.056873,2024/04/01 01:52:28+00,172451765
-77.0919883614544,38.9824668222766,47th & Elm St,classic,08259c89-1f3f-11e7-bf6b-3863bb334450,,2024/04/01 01:50:47+00,10,0,5,0,0,YES,YES,YES,YES,https://dc.lft.to/lastmile_qr_scan,https://dc.lft.to/lastmile_qr_scan,NO,NO,15,"KEY,CREDITCARD",44,DCA-CABI,,38.982456,-77.091991,2024/04/01 01:52:28+00,172451766
-76.9871228883954,39.0410463371638,White Oak Transit Center,classic,6edca550-d78f-4c5d-ad2c-79d1ce88c48d,,2024/04/01 01:50:47+00,18,1,0,0,0,YES,YES,YES,YES,https://dc.lft.to/lastmile_qr_scan,https://dc.lft.to/lastmile_qr_scan,NO,NO,19,"KEY,CREDITCARD",44,DCA-CABI,,39.04104,-76.987125,2024/04/01 01:52:28+00,172451767
-77.0232414501136,38.894858983755,8th & D St NW,classic,08256ac9-1f3f-11e7-bf6b-3863bb334450,,2024/04/01 01:50:50+00,4,0,9,1,1,YES,YES,YES,YES,https://dc.lft.to/lastmile_qr_scan,https://dc.lft.to/lastmile_qr_scan,NO,NO,15,"KEY,CREDITCARD",42,DCA-CABI,,38.894851,-77.02324,2024/04/01 01:52:28+00,172451768
-77.1784081527058,38.8797260720607,S Maple Ave & S Washington St,classic,5e571279-84a3-4dd6-9ee5-6a834e4c624a,,2024/04/01 01:50:45+00,8,0,4,0,0,YES,YES,YES,YES,https://dc.lft.to/lastmile_qr_scan,https://dc.lft.to/lastmile_qr_scan,NO,NO,12,"KEY,CREDITCARD",152,DCA-CABI,,38.87972,-77.178408,2024/04/01 01:52:28+00,172451769
-77.0791257550038,38.9257061012598,39th St & Tunlaw Rd NW,classic,1879766346478500482,,2024/04/01 01:50:45+00,16,0,3,3,0,YES,YES,YES,YES,https://dc.lft.to/lastmile_qr_scan,https://dc.lft.to/lastmile_qr_scan,NO,NO,19,"KEY,CREDITCARD",,DCA-CABI,,38.9257,-77.079119,2024/04/01 01:52:28+00,172451770
-77.0186782061153,38.9009404482096,5th St & Massachusetts Ave NW,classic,08254442-1f3f-11e7-bf6b-3863bb334450,,2024/03/29 01:29:31+00,7,0,0,0,12,YES,NO,NO,YES,https://dc.lft.to/lastmile_qr_scan,https://dc.lft.to/lastmile_qr_scan,NO,NO,19,"KEY,CREDITCARD",42,DCA-CABI,,38.90093,-77.018677,2024/04/01 01:52:28+00,172451771
-77.1926731377633,39.0963241320694,Fallsgrove Blvd & Fallsgrove Dr,classic,0825762e-1f3f-11e7-bf6b-3863bb334450,,2024/04/01 01:50:51+00,11,0,8,0,0,YES,YES,YES,YES,https://dc.lft.to/lastmile_qr_scan,https://dc.lft.to/lastmile_qr_scan,NO,NO,19,"KEY,CREDITCARD",43,DCA-CABI,,39.096312,-77.192672,2024/04/01 01:52:28+00,172451772
-76.9418759822002,38.901395918266,Nannie Helen Burroughs & Minnesota Ave NE,classic,082480f1-1f3f-11e7-bf6b-3863bb334450,,2024/04/01 01:50:52+00,7,0,3,0,1,YES,YES,YES,YES,https://dc.lft.to/lastmile_qr_scan,https://dc.lft.to/lastmile_qr_scan,NO,NO,11,"KEY,CREDITCARD",42,DCA-CABI,,38.901385,-76.941877,2024/04/01 01:52:28+00,172451773
-77.0510213420152,39.0384325815611,Wheaton Metro / Georgia Ave & Reedie Dr,classic,08265124-1f3f-11e7-bf6b-3863bb334450,,2024/04/01 01:50:53+00,15,0,3,3,0,YES,YES,YES,YES,https://dc.lft.to/lastmile_qr_scan,https://dc.lft.to/lastmile_qr_scan,NO,NO,19,"KEY,CREDITCARD",44,DCA-CABI,,39.038424,-77.05102,2024/04/01 01:52:28+00,172451774
-77.3614696935409,38.9523070633888,Reston Town Center Metro South,classic,5dfab137-f65a-41c0-99ef-d58f29a735b2,,2024/04/01 01:50:54+00,5,0,14,0,0,YES,YES,YES,YES,https://dc.lft.to/lastmile_qr_scan,https://dc.lft.to/lastmile_qr_scan,NO,NO,19,"KEY,CREDITCARD",104,DCA-CABI,,38.9523,-77.361466,2024/04/01 01:52:28+00,172451775
-77.0089135418544,38.8997074561938,North Capitol St & G Pl NE,classic,0825be05-1f3f-11e7-bf6b-3863bb334450,,2024/04/01 01:50:56+00,8,0,11,0,0,YES,YES,YES,YES,https://dc.lft.to/lastmile_qr_scan,https://dc.lft.to/lastmile_qr_scan,NO,NO,19,"KEY,CREDITCARD",42,DCA-CABI,,38.899703,-77.008911,2024/04/01 01:52:28+00,172451776
-77.057281284896,38.8368420656569,Commonwealth and Reed,classic,3af8c81c-b8d8-4af7-afe9-332a2cac4672,,2024/04/01 01:50:57+00,9,0,7,0,0,YES,YES,YES,YES,https://dc.lft.to/lastmile_qr_scan,https://dc.lft.to/lastmile_qr_scan,NO,NO,16,"KEY,CREDITCARD",40,DCA-CABI,,38.836838,-77.057274,2024/04/01 01:52:28+00,172451777
-77.0260157042278,38.8843276057508,10th St & L'Enfant Plaza SW,classic,08261d9d-1f3f-11e7-bf6b-3863bb334450,,2024/04/01 01:50:57+00,14,0,8,2,0,YES,YES,YES,YES,https://dc.lft.to/lastmile_qr_scan,https://dc.lft.to/lastmile_qr_scan,NO,NO,23,"KEY,CREDITCARD",42,DCA-CABI,,38.884323,-77.02601,2024/04/01 01:52:28+00,172451778
-77.0059726260136,38.8849249041764,1st & D St SE,classic,08263aa1-1f3f-11e7-bf6b-3863bb334450,,2024/04/01 01:50:57+00,13,0,5,0,1,YES,YES,YES,YES,https://dc.lft.to/lastmile_qr_scan,https://dc.lft.to/lastmile_qr_scan,NO,NO,19,"KEY,CREDITCARD",42,DCA-CABI,,38.884916,-77.005965,2024/04/01 01:52:28+00,172451779
-77.273003314292,38.8732643765389,Vaden Dr & Royal Victoria Dr/Jim Scott Cmty Ctr,classic,f08db1df-054a-46c8-a3e1-b349f2a26d5e,,2024/04/01 01:50:52+00,8,0,3,0,0,YES,YES,YES,YES,https://dc.lft.to/lastmile_qr_scan,https://dc.lft.to/lastmile_qr_scan,NO,NO,11,"KEY,CREDITCARD",104,DCA-CABI,,38.873261,-77.272999,2024/04/01 01:52:28+00,172451780
-77.0237943331946,38.9281266785113,Columbia Rd & Georgia Ave NW,classic,0825164b-1f3f-11e7-bf6b-3863bb334450,,2024/04/01 01:50:59+00,8,0,19,6,0,YES,YES,YES,YES,https://dc.lft.to/lastmile_qr_scan,https://dc.lft.to/lastmile_qr_scan,NO,NO,27,"KEY,CREDITCARD",42,DCA-CABI,,38.928121,-77.023795,2024/04/01 01:52:28+00,172451781
-77.0286914511435,38.8887861282326,Smithsonian-National Mall / Jefferson Dr & 12th St SW,classic,082522f0-1f3f-11e7-bf6b-3863bb334450,,2024/04/01 01:50:55+00,23,0,11,0,2,YES,YES,YES,YES,https://dc.lft.to/lastmile_qr_scan,https://dc.lft.to/lastmile_qr_scan,NO,NO,35,"KEY,CREDITCARD",42,DCA-CABI,,38.888774,-77.028694,2024/04/01 01:52:28+00,172451782
-77.0738583357291,38.8950721635146,Wilson Blvd & N Oak St,classic,83c9bc80-bc42-4e5d-9f5e-6c24812e6e37,,2024/04/01 01:50:55+00,12,0,4,0,1,YES,YES,YES,YES,https://dc.lft.to/lastmile_qr_scan,https://dc.lft.to/lastmile_qr_scan,NO,NO,17,"KEY,CREDITCARD",41,DCA-CABI,,38.895068,-77.07386,2024/04/01 01:52:28+00,172451783
-77.209427735285,38.8778278410562,Emma Lee St & Morris St,classic,3d8b6392-9572-4c65-b71c-fd8f03af9ab2,,2024/04/01 01:50:55+00,5,0,6,2,1,YES,YES,YES,YES,https://dc.lft.to/lastmile_qr_scan,https://dc.lft.to/lastmile_qr_scan,NO,NO,12,"KEY,CREDITCARD",104,DCA-CABI,,38.877818,-77.209421,2024/04/01 01:52:28+00,172451784
-77.0124577560568,38.9287500105822,1st & Washington Hospital Center NW,classic,0825201c-1f3f-11e7-bf6b-3863bb334450,,2024/04/01 01:50:55+00,1,0,13,5,0,YES,YES,YES,YES,https://dc.lft.to/lastmile_qr_scan,https://dc.lft.to/lastmile_qr_scan,NO,NO,15,"KEY,CREDITCARD",42,DCA-CABI,,38.928743,-77.012457,2024/04/01 01:52:28+00,172451785
-76.9984113271735,38.9029417862031,6th & K St NE,classic,082644bc-1f3f-11e7-bf6b-3863bb334450,,2024/04/01 01:50:56+00,9,0,10,1,0,YES,YES,YES,YES,https://dc.lft.to/lastmile_qr_scan,https://dc.lft.to/lastmile_qr_scan,NO,NO,19,"KEY,CREDITCARD",42,DCA-CABI,,38.902932,-76.998405,2024/04/01 01:52:28+00,172451786
-77.1491693402255,39.0836772934049,Monroe St & Monroe Pl,classic,082595a1-1f3f-11e7-bf6b-3863bb334450,,2024/03/25 13:20:47+00,6,0,0,0,9,YES,NO,NO,YES,https://dc.lft.to/lastmile_qr_scan,https://dc.lft.to/lastmile_qr_scan,NO,NO,15,"KEY,CREDITCARD",43,DCA-CABI,,39.083673,-77.149162,2024/04/01 01:52:28+00,172451787
-76.8780122541393,39.0003206802938,Roosevelt Center & Crescent Rd,classic,6922a398-ec20-493d-a832-5e337cf335f5,,2024/04/01 01:51:04+00,7,1,7,0,0,YES,YES,YES,YES,https://dc.lft.to/lastmile_qr_scan,https://dc.lft.to/lastmile_qr_scan,NO,NO,15,"KEY,CREDITCARD",133,DCA-CABI,,39.00031,-76.878005,2024/04/01 01:52:28+00,172451788
-77.0139153097856,38.8922840731312,Constitution Ave & 2nd St NW/DOL,classic,08256d91-1f3f-11e7-bf6b-3863bb334450,,2024/04/01 01:51:04+00,23,0,3,2,1,YES,YES,YES,YES,https://dc.lft.to/lastmile_qr_scan,https://dc.lft.to/lastmile_qr_scan,NO,NO,27,"KEY,CREDITCARD",42,DCA-CABI,,38.892275,-77.013917,2024/04/01 01:52:28+00,172451789
-77.044629729393,38.8107500333527,St Asaph & Pendleton St,classic,08253a4b-1f3f-11e7-bf6b-3863bb334450,,2024/04/01 01:51:02+00,14,0,1,0,0,YES,YES,YES,YES,https://dc.lft.to/lastmile_qr_scan,https://dc.lft.to/lastmile_qr_scan,NO,NO,15,"KEY,CREDITCARD",40,DCA-CABI,,38.810741,-77.044633,2024/04/01 01:52:28+00,172451790
-77.0238610817091,38.9897341572143,Fenton St & Gist Ave,classic,0825ac97-1f3f-11e7-bf6b-3863bb334450,,2024/04/01 01:51:06+00,7,0,4,2,0,YES,YES,YES,YES,https://dc.lft.to/lastmile_qr_scan,https://dc.lft.to/lastmile_qr_scan,NO,NO,11,"KEY,CREDITCARD",44,DCA-CABI,,38.989724,-77.023854,2024/04/01 01:52:28+00,172451791
-77.0751418989719,38.9645524666994,Connecticut Ave & McKinley St NW,classic,0825fbd3-1f3f-11e7-bf6b-3863bb334450,,2024/04/01 01:51:05+00,5,0,13,2,1,YES,YES,YES,YES,https://dc.lft.to/lastmile_qr_scan,https://dc.lft.to/lastmile_qr_scan,NO,NO,19,"KEY,CREDITCARD",42,DCA-CABI,,38.964544,-77.075135,2024/04/01 01:52:28+00,172451792
-77.0278553047976,38.9613483385956,Georgia & Missouri Ave NW,classic,082605b0-1f3f-11e7-bf6b-3863bb334450,,2024/04/01 01:51:00+00,6,0,13,0,0,YES,YES,YES,YES,https://dc.lft.to/lastmile_qr_scan,https://dc.lft.to/lastmile_qr_scan,NO,NO,19,"KEY,CREDITCARD",42,DCA-CABI,,38.961339,-77.027855,2024/04/01 01:52:28+00,172451793
-77.0383609737007,38.9081513342091,17th St & Massachusetts Ave NW,classic,08255063-1f3f-11e7-bf6b-3863bb334450,,2024/04/01 01:51:01+00,3,0,15,1,0,YES,YES,YES,YES,https://dc.lft.to/lastmile_qr_scan,https://dc.lft.to/lastmile_qr_scan,NO,NO,19,"KEY,CREDITCARD",42,DCA-CABI,,38.908142,-77.038359,2024/04/01 01:52:28+00,172451794
-76.9253170279883,38.8833247135964,53rd & D St SE/C.W. Harris Elementary,classic,12b1c990-90e7-4fef-a5b9-c78d4c81af96,,2024/04/01 01:51:01+00,19,0,0,0,0,YES,YES,YES,YES,https://dc.lft.to/lastmile_qr_scan,https://dc.lft.to/lastmile_qr_scan,NO,NO,19,"KEY,CREDITCARD",42,DCA-CABI,,38.883318,-76.925315,2024/04/01 01:52:28+00,172451795
-77.0890064209176,38.8959354155611,Langston Blvd & N Adams St,classic,08252530-1f3f-11e7-bf6b-3863bb334450,,2024/04/01 01:51:07+00,8,0,7,0,0,YES,YES,YES,YES,https://dc.lft.to/lastmile_qr_scan,https://dc.lft.to/lastmile_qr_scan,NO,NO,15,"KEY,CREDITCARD",41,DCA-CABI,,38.89593,-77.089006,2024/04/01 01:52:28+00,172451796
-77.0000369155424,38.9867548747275,WAU / Flower Ave & Division St,classic,0825faf6-1f3f-11e7-bf6b-3863bb334450,,2024/04/01 01:51:08+00,3,0,12,4,0,YES,YES,YES,YES,https://dc.lft.to/lastmile_qr_scan,https://dc.lft.to/lastmile_qr_scan,NO,NO,15,"KEY,CREDITCARD",44,DCA-CABI,,38.986743,-77.000035,2024/04/01 01:52:28+00,172451797
-77.293922281718,38.8628088306748,Fair Woods Pkwy & Fairfax Blvd,classic,1875305027705686898,,2024/04/01 01:49:14+00,9,0,3,0,0,YES,YES,YES,YES,https://dc.lft.to/lastmile_qr_scan,https://dc.lft.to/lastmile_qr_scan,NO,NO,12,"KEY,CREDITCARD",,DCA-CABI,,38.862804,-77.293922,2024/04/01 01:52:28+00,172451798
-77.0446835785832,38.804804403737,King St & N Pitt St,classic,e84a9c46-89ce-45dc-866f-fe8cbc50e88e,,2024/04/01 01:49:19+00,13,0,2,1,0,YES,YES,YES,YES,https://dc.lft.to/lastmile_qr_scan,https://dc.lft.to/lastmile_qr_scan,NO,NO,15,"KEY,CREDITCARD",40,DCA-CABI,,38.804801,-77.044676,2024/04/01 01:52:28+00,172451799
-77.2072612122011,38.8977042431123,Pimmit Dr & Idyl Ln,classic,4b55ad18-eb2e-47b5-aaeb-aefd6ad856fd,,2024/04/01 01:49:12+00,10,0,2,0,0,YES,YES,YES,YES,https://dc.lft.to/lastmile_qr_scan,https://dc.lft.to/lastmile_qr_scan,NO,NO,12,"KEY,CREDITCARD",104,DCA-CABI,,38.897692,-77.207261,2024/04/01 01:52:28+00,172451800
-77.0862626725343,38.9339076260485,44th St & New Mexico Ave NW,classic,1877753940179542324,,2024/04/01 01:49:11+00,7,0,12,2,0,YES,YES,YES,YES,https://dc.lft.to/lastmile_qr_scan,https://dc.lft.to/lastmile_qr_scan,NO,NO,19,"KEY,CREDITCARD",,DCA-CABI,,38.933899,-77.086263,2024/04/01 01:52:28+00,172451801
-77.0282409308572,38.8862819082222,USDA / 12th & C St SW,classic,08249b7f-1f3f-11e7-bf6b-3863bb334450,,2024/04/01 01:49:20+00,37,0,8,3,1,YES,YES,YES,YES,https://dc.lft.to/lastmile_qr_scan,https://dc.lft.to/lastmile_qr_scan,NO,NO,47,"KEY,CREDITCARD",42,DCA-CABI,,38.886277,-77.028242,2024/04/01 01:52:28+00,172451802
-77.0500335556159,38.8655642948528,Long Bridge Park / Long Bridge Dr & 6th St S,classic,0825fb66-1f3f-11e7-bf6b-3863bb334450,,2024/04/01 01:49:15+00,2,0,13,3,0,YES,YES,YES,YES,https://dc.lft.to/lastmile_qr_scan,https://dc.lft.to/lastmile_qr_scan,NO,NO,15,"KEY,CREDITCARD",41,DCA-CABI,,38.865553,-77.05003,2024/04/01 01:52:28+00,172451803
-77.0501031834748,38.8170267290378,First St & Fayette St,classic,889571f8-5774-4097-a31f-4b6e3f5b4381,,2024/04/01 01:49:27+00,9,0,7,1,0,YES,YES,YES,YES,https://dc.lft.to/lastmile_qr_scan,https://dc.lft.to/lastmile_qr_scan,NO,NO,16,"KEY,CREDITCARD",40,DCA-CABI,,38.817019,-77.050105,2024/04/01 01:52:28+00,172451804
-77.013824324186,38.9581078663159,Kansas Ave & Longfellow St NW,classic,d1fd7121-67e3-46a9-b415-e84a565394f2,,2024/04/01 01:49:24+00,8,0,11,0,0,YES,YES,YES,YES,https://dc.lft.to/lastmile_qr_scan,https://dc.lft.to/lastmile_qr_scan,NO,NO,19,"KEY,CREDITCARD",42,DCA-CABI,,38.958098,-77.013821,2024/04/01 01:52:28+00,172451805
-76.9831517076957,38.8357468663685,United Medical Center,classic,5f0f9566-90d4-431e-9b6d-994e26d20ec6,,2024/04/01 01:49:28+00,10,0,9,1,0,YES,YES,YES,YES,https://dc.lft.to/lastmile_qr_scan,https://dc.lft.to/lastmile_qr_scan,NO,NO,19,"KEY,CREDITCARD",42,DCA-CABI,,38.835737,-76.983144,2024/04/01 01:52:28+00,172451806
-77.3407901675923,38.9704218437984,North Shore Dr & Village Rd,classic,0826533b-1f3f-11e7-bf6b-3863bb334450,,2024/04/01 01:49:28+00,9,0,2,0,0,YES,YES,YES,YES,https://dc.lft.to/lastmile_qr_scan,https://dc.lft.to/lastmile_qr_scan,NO,NO,11,"KEY,CREDITCARD",104,DCA-CABI,,38.970412,-77.340787,2024/04/01 01:52:28+00,172451807
-77.1590551057309,39.0956719748197,Montgomery College / W Campus Dr & Mannakee St,classic,0825aa94-1f3f-11e7-bf6b-3863bb334450,,2024/04/01 01:49:29+00,17,0,4,0,0,YES,YES,YES,YES,https://dc.lft.to/lastmile_qr_scan,https://dc.lft.to/lastmile_qr_scan,NO,NO,21,"KEY,CREDITCARD",43,DCA-CABI,,39.095661,-77.159048,2024/04/01 01:52:28+00,172451808
-77.0954314547895,38.8473660072609,S Four Mile Run Dr & Walter Reed Dr,classic,08254d7e-1f3f-11e7-bf6b-3863bb334450,,2024/04/01 01:49:32+00,6,0,6,0,0,YES,YES,YES,YES,https://dc.lft.to/lastmile_qr_scan,https://dc.lft.to/lastmile_qr_scan,NO,NO,12,"KEY,CREDITCARD",41,DCA-CABI,,38.84736,-77.095431,2024/04/01 01:52:28+00,172453409
-77.0505368215219,38.8440249177983,Potomac Ave & 35th St S,classic,0824e2e3-1f3f-11e7-bf6b-3863bb334450,,2024/04/01 01:49:37+00,13,0,2,1,0,YES,YES,YES,YES,https://dc.lft.to/lastmile_qr_scan,https://dc.lft.to/lastmile_qr_scan,NO,NO,15,"KEY,CREDITCARD",41,DCA-CABI,,38.844015,-77.050537,2024/04/01 01:52:28+00,172453410
-77.0003480801143,38.8899607410718,4th & East Capitol St NE,classic,0824c1a1-1f3f-11e7-bf6b-3863bb334450,,2024/04/01 01:49:37+00,7,0,3,2,1,YES,YES,YES,YES,https://dc.lft.to/lastmile_qr_scan,https://dc.lft.to/lastmile_qr_scan,NO,NO,11,"KEY,CREDITCARD",42,DCA-CABI,,38.889955,-77.000349,2024/04/01 01:52:28+00,172453411
-77.0087767871848,38.9125713908621,North Capitol & R St NE,classic,2a76806e-32b4-4ec6-a851-f73ba7dafda1,,2024/04/01 01:49:33+00,7,2,5,2,1,YES,YES,YES,YES,https://dc.lft.to/lastmile_qr_scan,https://dc.lft.to/lastmile_qr_scan,NO,NO,15,"KEY,CREDITCARD",42,DCA-CABI,,38.91256,-77.008775,2024/04/01 01:52:28+00,172453412
-76.9960238077873,38.922408751231,MBT & Bryant St NE,classic,0627dc3c-5c62-4ab1-a6f0-3635c6f80d23,,2024/04/01 01:49:35+00,13,0,6,0,0,YES,YES,YES,YES,https://dc.lft.to/lastmile_qr_scan,https://dc.lft.to/lastmile_qr_scan,NO,NO,19,"KEY,CREDITCARD",42,DCA-CABI,,38.922404,-76.996023,2024/04/01 01:52:28+00,172453413
-77.0658024913813,38.8845371759619,Arlington National Cemetery,classic,af5c5675-452b-4e1f-9d9f-7f4a0c50388d,,2024/04/01 01:49:33+00,16,0,2,1,1,YES,YES,YES,YES,https://dc.lft.to/lastmile_qr_scan,https://dc.lft.to/lastmile_qr_scan,NO,NO,19,"KEY,CREDITCARD",41,DCA-CABI,,38.884533,-77.065803,2024/04/01 01:52:28+00,172453414
-77.0324258967085,38.8885599416846,Jefferson Dr & 14th St SW,classic,08252260-1f3f-11e7-bf6b-3863bb334450,,2024/04/01 01:49:34+00,7,0,16,1,0,YES,YES,YES,YES,https://dc.lft.to/lastmile_qr_scan,https://dc.lft.to/lastmile_qr_scan,NO,NO,23,"KEY,CREDITCARD",42,DCA-CABI,,38.888553,-77.032427,2024/04/01 01:52:28+00,172453415
-77.0866026709251,38.8624890436952,Columbia Pike & S Walter Reed Dr,classic,08256fcd-1f3f-11e7-bf6b-3863bb334450,,2024/04/01 01:49:38+00,12,0,0,0,0,YES,YES,YES,YES,https://dc.lft.to/lastmile_qr_scan,https://dc.lft.to/lastmile_qr_scan,NO,NO,12,"KEY,CREDITCARD",41,DCA-CABI,,38.862478,-77.086599,2024/04/01 01:52:28+00,172453416
-77.3684188570006,38.9553211824459,Reston YMCA,classic,08263f4a-1f3f-11e7-bf6b-3863bb334450,,2024/04/01 01:49:39+00,7,0,8,0,0,YES,YES,YES,YES,https://dc.lft.to/lastmile_qr_scan,https://dc.lft.to/lastmile_qr_scan,NO,NO,15,"KEY,CREDITCARD",104,DCA-CABI,,38.955314,-77.368416,2024/04/01 01:52:28+00,172453417
-77.090911629526,38.9165090303078,Whitehaven Pkwy & Foxhall Rd NW / GWU Mt. Vernon,classic,55d4e20d-6b27-485e-8115-4046ac2313ea,,2024/04/01 01:49:42+00,17,0,1,0,1,YES,YES,YES,YES,https://dc.lft.to/lastmile_qr_scan,https://dc.lft.to/lastmile_qr_scan,NO,NO,19,"KEY,CREDITCARD",42,DCA-CABI,,38.916501,-77.090911,2024/04/01 01:52:28+00,172453418
-77.3516540911385,38.9550845425896,W&OD Trail/Sunset Hills Rd & Old Reston Ave,classic,082639c8-1f3f-11e7-bf6b-3863bb334450,,2024/04/01 01:49:42+00,6,0,8,2,1,YES,YES,YES,YES,https://dc.lft.to/lastmile_qr_scan,https://dc.lft.to/lastmile_qr_scan,NO,NO,15,"KEY,CREDITCARD",104,DCA-CABI,,38.955079,-77.351649,2024/04/01 01:52:28+00,172453419
-77.0010962545038,38.8215687476915,South Capitol St and Southern Ave SE,classic,9973e0f4-23dd-4b50-9ef4-8408fa8a1105,,2024/04/01 01:49:42+00,0,0,15,1,0,YES,YES,YES,YES,https://dc.lft.to/lastmile_qr_scan,https://dc.lft.to/lastmile_qr_scan,NO,NO,15,"KEY,CREDITCARD",42,DCA-CABI,,38.821563,-77.001095,2024/04/01 01:52:28+00,172453420
-77.0415381924598,38.8996914025609,18th St & Pennsylvania Ave NW,classic,08250172-1f3f-11e7-bf6b-3863bb334450,,2024/04/01 01:49:44+00,20,0,5,0,1,YES,YES,YES,YES,https://dc.lft.to/lastmile_qr_scan,https://dc.lft.to/lastmile_qr_scan,NO,NO,27,"KEY,CREDITCARD",42,DCA-CABI,,38.89968,-77.041539,2024/04/01 01:52:28+00,172453421
-77.1162103075071,38.8386359949404,Fillmore & Bisdorf,classic,a8ffa826-a14d-4bb0-ab33-de6b8c34d190,,2024/04/01 01:49:40+00,4,0,7,1,0,YES,YES,YES,YES,https://dc.lft.to/lastmile_qr_scan,https://dc.lft.to/lastmile_qr_scan,NO,NO,11,"KEY,CREDITCARD",40,DCA-CABI,,38.83863,-77.116206,2024/04/01 01:52:28+00,172453422
-77.0500512035051,38.9235871982823,Calvert St & Woodley Pl NW,classic,0825b8f0-1f3f-11e7-bf6b-3863bb334450,,2024/04/01 01:49:39+00,18,0,0,0,1,YES,YES,YES,YES,https://dc.lft.to/lastmile_qr_scan,https://dc.lft.to/lastmile_qr_scan,NO,NO,19,"KEY,CREDITCARD",42,DCA-CABI,,38.923583,-77.050046,2024/04/01 01:52:28+00,172453423
-77.0262398139877,38.8982545027292,10th & G St NW,classic,0825f622-1f3f-11e7-bf6b-3863bb334450,,2024/04/01 01:49:45+00,15,0,8,1,0,YES,YES,YES,YES,https://dc.lft.to/lastmile_qr_scan,https://dc.lft.to/lastmile_qr_scan,NO,NO,23,"KEY,CREDITCARD",42,DCA-CABI,,38.898243,-77.026235,2024/04/01 01:52:28+00,172453424
-77.0846422852585,38.9582762265901,Wisconsin Ave & Ingomar St NW,classic,0826176a-1f3f-11e7-bf6b-3863bb334450,,2024/04/01 01:49:49+00,4,0,15,2,0,YES,YES,YES,YES,https://dc.lft.to/lastmile_qr_scan,https://dc.lft.to/lastmile_qr_scan,NO,NO,19,"KEY,CREDITCARD",42,DCA-CABI,,38.958267,-77.084636,2024/04/01 01:52:28+00,172453425
-76.9479799024819,38.8940119358908,Benning Branch Library,classic,08249b10-1f3f-11e7-bf6b-3863bb334450,,2024/04/01 01:49:49+00,6,0,5,1,0,YES,YES,YES,YES,https://dc.lft.to/lastmile_qr_scan,https://dc.lft.to/lastmile_qr_scan,NO,NO,11,"KEY,CREDITCARD",42,DCA-CABI,,38.894,-76.947974,2024/04/01 01:52:28+00,172453426
-77.0930769534621,38.8881039628384,Clarendon Blvd & N Fillmore St,classic,0824fd71-1f3f-11e7-bf6b-3863bb334450,,2024/04/01 01:49:46+00,10,0,5,2,0,YES,YES,YES,YES,https://dc.lft.to/lastmile_qr_scan,https://dc.lft.to/lastmile_qr_scan,NO,NO,15,"KEY,CREDITCARD",41,DCA-CABI,,38.8881,-77.09308,2024/04/01 01:52:28+00,172453427
-77.0006480363955,38.9190847446191,4th & W St NE,classic,0824833c-1f3f-11e7-bf6b-3863bb334450,,2024/04/01 01:49:47+00,10,0,3,1,2,YES,YES,YES,YES,https://dc.lft.to/lastmile_qr_scan,https://dc.lft.to/lastmile_qr_scan,NO,NO,15,"KEY,CREDITCARD",42,DCA-CABI,,38.919077,-77.000648,2024/04/01 01:52:28+00,172453428
-77.0519544118017,38.8450332415105,S Clark St & 33rd St,classic,e2a96f4c-801e-4cf8-be0f-f767a5d8ca1b,,2024/04/01 01:49:51+00,11,0,1,0,0,YES,YES,YES,YES,https://dc.lft.to/lastmile_qr_scan,https://dc.lft.to/lastmile_qr_scan,NO,NO,12,"KEY,CREDITCARD",41,DCA-CABI,,38.845028,-77.051956,2024/04/01 01:52:28+00,172453429
-77.012807847051,38.9516040127932,New Hampshire & Gallatin St NW,classic,89263cc9-13f6-4185-b315-5164c9bb930e,,2024/04/01 01:49:52+00,4,0,15,4,0,YES,YES,YES,YES,https://dc.lft.to/lastmile_qr_scan,https://dc.lft.to/lastmile_qr_scan,NO,NO,19,"KEY,CREDITCARD",42,DCA-CABI,,38.951596,-77.012808,2024/04/01 01:52:28+00,172453430
-77.1770933341984,39.1022219365466,Piccard & W Gude Dr,classic,0825b4c9-1f3f-11e7-bf6b-3863bb334450,,2024/04/01 01:49:54+00,12,0,7,0,0,YES,YES,YES,YES,https://dc.lft.to/lastmile_qr_scan,https://dc.lft.to/lastmile_qr_scan,NO,NO,19,"KEY,CREDITCARD",43,DCA-CABI,,39.102212,-77.177091,2024/04/01 01:52:28+00,172453431
-77.0328057232607,38.9375111515644,14th St & Spring Rd NW,classic,08247c29-1f3f-11e7-bf6b-3863bb334450,,2024/04/01 01:49:57+00,10,0,7,3,0,YES,YES,YES,YES,https://dc.lft.to/lastmile_qr_scan,https://dc.lft.to/lastmile_qr_scan,NO,NO,17,"KEY,CREDITCARD",42,DCA-CABI,,38.9375,-77.0328,2024/04/01 01:52:28+00,172453432
-76.9355842652197,38.9621266412299,Riverdale Park Town Center,classic,d8f65b11-57ec-4a9f-9b52-f5696e129f02,,2024/04/01 01:49:57+00,5,0,12,0,0,YES,YES,YES,YES,https://dc.lft.to/lastmile_qr_scan,https://dc.lft.to/lastmile_qr_scan,NO,NO,17,"KEY,CREDITCARD",133,DCA-CABI,,38.962119,-76.935578,2024/04/01 01:52:28+00,172453433
-77.0922094342724,38.9838449060402,Montgomery Ave & Waverly St ,classic,0825756e-1f3f-11e7-bf6b-3863bb334450,,2024/04/01 01:49:57+00,3,0,8,0,0,YES,YES,YES,YES,https://dc.lft.to/lastmile_qr_scan,https://dc.lft.to/lastmile_qr_scan,NO,NO,11,"KEY,CREDITCARD",44,DCA-CABI,,38.983838,-77.09221,2024/04/01 01:52:28+00,172453434
-77.0477915073535,39.0448927564387,Amherst Ave & Elkins St,classic,0826518d-1f3f-11e7-bf6b-3863bb334450,,2024/04/01 01:49:55+00,12,1,2,0,0,YES,YES,YES,YES,https://dc.lft.to/lastmile_qr_scan,https://dc.lft.to/lastmile_qr_scan,NO,NO,15,"KEY,CREDITCARD",44,DCA-CABI,,39.044887,-77.047788,2024/04/01 01:52:28+00,172453435
-77.1926441972298,39.106980642618,Corporate Blvd & Omega Dr,classic,58c07d78-f78e-4215-8548-7b0f37bafc73,,2024/04/01 01:49:58+00,13,0,2,0,0,YES,YES,YES,YES,https://dc.lft.to/lastmile_qr_scan,https://dc.lft.to/lastmile_qr_scan,NO,NO,15,"KEY,CREDITCARD",43,DCA-CABI,,39.106971,-77.192645,2024/04/01 01:52:28+00,172453436
-76.9695112727153,38.8975057778636,Oklahoma Ave & Benning Rd NE,classic,54962348-19dd-47b8-a816-bce25eb658a1,,2024/04/01 01:49:58+00,14,0,5,1,0,YES,YES,YES,YES,https://dc.lft.to/lastmile_qr_scan,https://dc.lft.to/lastmile_qr_scan,NO,NO,19,"KEY,CREDITCARD",42,DCA-CABI,,38.8975,-76.969509,2024/04/01 01:52:28+00,172453437
-77.0199445458911,38.8945803337983,6th St & Indiana Ave NW,classic,08252414-1f3f-11e7-bf6b-3863bb334450,,2024/04/01 01:49:59+00,12,0,7,1,0,YES,YES,YES,YES,https://dc.lft.to/lastmile_qr_scan,https://dc.lft.to/lastmile_qr_scan,NO,NO,19,"KEY,CREDITCARD",42,DCA-CABI,,38.894573,-77.01994,2024/04/01 01:52:28+00,172453438
-76.9454965300055,39.0816427174807,Briggs Chaney & Castle Dr,classic,5075ddc9-7546-44a6-9445-0a48a53267df,,2024/04/01 01:50:03+00,16,0,3,0,0,YES,YES,YES,YES,https://dc.lft.to/lastmile_qr_scan,https://dc.lft.to/lastmile_qr_scan,NO,NO,19,"KEY,CREDITCARD",44,DCA-CABI,,39.081638,-76.945495,2024/04/01 01:52:28+00,172453439
-77.1078529497522,38.8800197343389,Wilson Blvd & N Quincy St,classic,08252a00-1f3f-11e7-bf6b-3863bb334450,,2024/04/01 01:50:04+00,4,0,11,3,0,YES,YES,YES,YES,https://dc.lft.to/lastmile_qr_scan,https://dc.lft.to/lastmile_qr_scan,NO,NO,15,"KEY,CREDITCARD",41,DCA-CABI,,38.880012,-77.107854,2024/04/01 01:52:28+00,172453440
-77.1047903684024,38.8742571449168,N Pershing Dr & N Quebec St,classic,174fc644-1a5a-4923-a8b5-373e0ad04525,,2024/04/01 01:50:02+00,10,0,5,0,0,YES,YES,YES,YES,https://dc.lft.to/lastmile_qr_scan,https://dc.lft.to/lastmile_qr_scan,NO,NO,15,"KEY,CREDITCARD",41,DCA-CABI,,38.874248,-77.104784,2024/04/01 01:52:28+00,172453441
-77.1468707604189,39.0843828244445,Rockville Metro West,classic,0825f1f7-1f3f-11e7-bf6b-3863bb334450,,2024/04/01 01:50:04+00,13,0,5,0,0,YES,YES,YES,YES,https://dc.lft.to/lastmile_qr_scan,https://dc.lft.to/lastmile_qr_scan,NO,NO,19,"KEY,CREDITCARD",43,DCA-CABI,,39.084379,-77.146866,2024/04/01 01:52:28+00,172453442
-77.0584680958946,38.9358526124148,Connecticut Ave & Ordway St NW / Cleveland Park Metro ,classic,1928837279316128558,,2024/04/01 01:50:01+00,14,0,1,1,0,YES,YES,YES,YES,https://dc.lft.to/lastmile_qr_scan,https://dc.lft.to/lastmile_qr_scan,NO,NO,15,"KEY,CREDITCARD",,DCA-CABI,,38.935842,-77.058468,2024/04/01 01:52:28+00,172453443
-76.9522019017527,38.9755118571134,Northwestern High School,classic,3dd9e864-a5fc-4c27-b18e-325226089293,,2024/04/01 01:50:01+00,3,0,12,0,0,YES,YES,YES,YES,https://dc.lft.to/lastmile_qr_scan,https://dc.lft.to/lastmile_qr_scan,NO,NO,15,"KEY,CREDITCARD",133,DCA-CABI,,38.975505,-76.952199,2024/04/01 01:52:28+00,172453444
-77.1648645035427,39.1233364472643,Columbus Ave & Gramercy Blvd,classic,de5bd592-0f48-4c6a-b7fc-8ff687c6e1a5,,2024/04/01 01:50:00+00,4,0,7,0,0,YES,YES,YES,YES,https://dc.lft.to/lastmile_qr_scan,https://dc.lft.to/lastmile_qr_scan,NO,NO,11,"KEY,CREDITCARD",43,DCA-CABI,,39.12333,-77.16486,2024/04/01 01:52:28+00,172453445
-77.0576248044051,38.8200681245572,Mount Vernon Ave & E Nelson Ave,classic,0825f8da-1f3f-11e7-bf6b-3863bb334450,,2024/04/01 01:50:08+00,3,0,7,3,1,YES,YES,YES,YES,https://dc.lft.to/lastmile_qr_scan,https://dc.lft.to/lastmile_qr_scan,NO,NO,11,"KEY,CREDITCARD",40,DCA-CABI,,38.820064,-77.057619,2024/04/01 01:52:28+00,172453446
-77.1512969781403,39.0841339739182,E Montgomery Ave & Maryland Ave,classic,082582ff-1f3f-11e7-bf6b-3863bb334450,,2024/04/01 01:50:12+00,9,0,5,1,1,YES,YES,YES,YES,https://dc.lft.to/lastmile_qr_scan,https://dc.lft.to/lastmile_qr_scan,NO,NO,15,"KEY,CREDITCARD",43,DCA-CABI,,39.084125,-77.151291,2024/04/01 01:52:28+00,172453447
-77.1826749704153,39.1103205549823,King Farm Blvd & Piccard Dr,classic,0825b7cc-1f3f-11e7-bf6b-3863bb334450,,2024/04/01 01:50:12+00,10,0,4,0,1,YES,YES,YES,YES,https://dc.lft.to/lastmile_qr_scan,https://dc.lft.to/lastmile_qr_scan,NO,NO,15,"KEY,CREDITCARD",43,DCA-CABI,,39.110314,-77.182669,2024/04/01 01:52:28+00,172453448
-77.0860636504079,38.8932441172093,N Veitch St & Key Blvd,classic,082524a2-1f3f-11e7-bf6b-3863bb334450,,2024/04/01 01:50:13+00,9,0,3,0,0,YES,YES,YES,YES,https://dc.lft.to/lastmile_qr_scan,https://dc.lft.to/lastmile_qr_scan,NO,NO,12,"KEY,CREDITCARD",41,DCA-CABI,,38.893237,-77.086063,2024/04/01 01:52:28+00,172453449
-77.0842687033841,38.8862639310114,Arlington Blvd & Fairfax Dr,classic,abd8bd04-94ec-4818-baf5-7f79742e982c,,2024/04/01 01:50:06+00,7,0,8,0,1,YES,YES,YES,YES,https://dc.lft.to/lastmile_qr_scan,https://dc.lft.to/lastmile_qr_scan,NO,NO,16,"KEY,CREDITCARD",41,DCA-CABI,,38.886256,-77.084262,2024/04/01 01:52:28+00,172453450
-77.0318871674976,38.9210802440205,14th & Belmont St NW,classic,08258d95-1f3f-11e7-bf6b-3863bb334450,,2024/04/01 01:50:06+00,12,0,1,1,2,YES,YES,YES,YES,https://dc.lft.to/lastmile_qr_scan,https://dc.lft.to/lastmile_qr_scan,NO,NO,15,"KEY,CREDITCARD",42,DCA-CABI,,38.921074,-77.031887,2024/04/01 01:52:28+00,172453451
-77.0918683657727,38.8894021268133,Wilson Blvd & N Edgewood St,classic,0824f3d6-1f3f-11e7-bf6b-3863bb334450,,2024/04/01 01:50:07+00,3,0,11,2,0,YES,YES,YES,YES,https://dc.lft.to/lastmile_qr_scan,https://dc.lft.to/lastmile_qr_scan,NO,NO,15,"KEY,CREDITCARD",41,DCA-CABI,,38.889396,-77.091862,2024/04/01 01:52:28+00,172453452
-76.9330962071975,38.9084807955049,Deanwood Rec Center,classic,0825baa3-1f3f-11e7-bf6b-3863bb334450,,2024/04/01 01:50:11+00,13,0,2,1,0,YES,YES,YES,YES,https://dc.lft.to/lastmile_qr_scan,https://dc.lft.to/lastmile_qr_scan,NO,NO,15,"KEY,CREDITCARD",42,DCA-CABI,,38.908473,-76.933099,2024/04/01 01:52:28+00,172453453
-77.2201574117395,38.9152559921775,Towers Crescent Dr & Tysons One Pl,classic,0826444d-1f3f-11e7-bf6b-3863bb334450,,2024/04/01 01:50:07+00,4,0,7,0,0,YES,YES,YES,YES,https://dc.lft.to/lastmile_qr_scan,https://dc.lft.to/lastmile_qr_scan,NO,NO,11,"KEY,CREDITCARD",104,DCA-CABI,,38.915246,-77.220157,2024/04/01 01:52:28+00,172453454
-77.048858045388,38.8989318679669,22nd & H St NW,classic,d325a449-32d7-488d-b746-9455ad003834,,2024/04/01 01:50:16+00,12,0,5,0,0,YES,YES,YES,YES,https://dc.lft.to/lastmile_qr_scan,https://dc.lft.to/lastmile_qr_scan,NO,NO,17,"KEY,CREDITCARD",42,DCA-CABI,,38.898925,-77.048852,2024/04/01 01:52:28+00,172453455
-77.0974225751283,38.9811111883525,Bethesda Ave & Arlington Rd,classic,0825738d-1f3f-11e7-bf6b-3863bb334450,,2024/04/01 01:50:15+00,8,0,11,2,0,YES,YES,YES,YES,https://dc.lft.to/lastmile_qr_scan,https://dc.lft.to/lastmile_qr_scan,NO,NO,19,"KEY,CREDITCARD",44,DCA-CABI,,38.981103,-77.097426,2024/04/01 01:52:28+00,172453456
-77.042451328345,38.9037448356177,18th & L St NW,classic,0824a5b0-1f3f-11e7-bf6b-3863bb334450,,2024/04/01 01:50:18+00,18,0,1,0,0,YES,YES,YES,YES,https://dc.lft.to/lastmile_qr_scan,https://dc.lft.to/lastmile_qr_scan,NO,NO,19,"KEY,CREDITCARD",42,DCA-CABI,,38.903741,-77.042452,2024/04/01 01:52:28+00,172453457
-77.020942188781,38.8767525685615,Maine Ave & Water St SW,classic,a41e5bd2-b599-4c47-a36f-31ffa2e2dd0b,,2024/04/01 01:50:18+00,6,0,11,0,2,YES,YES,YES,YES,https://dc.lft.to/lastmile_qr_scan,https://dc.lft.to/lastmile_qr_scan,NO,NO,19,"KEY,CREDITCARD",42,DCA-CABI,,38.876747,-77.020945,2024/04/01 01:52:28+00,172453458
-77.0489170260233,38.9008866577795,22nd & I St NW / Foggy Bottom,classic,08254037-1f3f-11e7-bf6b-3863bb334450,,2024/04/01 01:50:18+00,11,0,3,1,1,YES,YES,YES,YES,https://dc.lft.to/lastmile_qr_scan,https://dc.lft.to/lastmile_qr_scan,NO,NO,15,"KEY,CREDITCARD",42,DCA-CABI,,38.90088,-77.048911,2024/04/01 01:52:28+00,172453459
-77.0041740982018,38.8762228765103,M St & New Jersey Ave SE,classic,082486f0-1f3f-11e7-bf6b-3863bb334450,,2024/04/01 01:50:18+00,17,0,0,0,0,YES,YES,YES,YES,https://dc.lft.to/lastmile_qr_scan,https://dc.lft.to/lastmile_qr_scan,NO,NO,17,"KEY,CREDITCARD",42,DCA-CABI,,38.876219,-77.004169,2024/04/01 01:52:28+00,172453460
-77.050268958512,38.9053091869657,23rd & M St NW,classic,5b745524-d0d3-4197-8c69-0ad4e5761883,,2024/04/01 01:50:27+00,12,0,6,0,1,YES,YES,YES,YES,https://dc.lft.to/lastmile_qr_scan,https://dc.lft.to/lastmile_qr_scan,NO,NO,19,"KEY,CREDITCARD",42,DCA-CABI,,38.905303,-77.050264,2024/04/01 01:52:28+00,172453461
-77.0193458435766,38.897228894416,5th & F St NW,classic,0824a28b-1f3f-11e7-bf6b-3863bb334450,,2024/04/01 01:50:27+00,15,0,16,4,0,YES,YES,YES,YES,https://dc.lft.to/lastmile_qr_scan,https://dc.lft.to/lastmile_qr_scan,NO,NO,31,"KEY,CREDITCARD",42,DCA-CABI,,38.897222,-77.019347,2024/04/01 01:52:28+00,172453462
-76.9748266526823,38.8944802327631,Oklahoma Ave & D St NE,classic,08261245-1f3f-11e7-bf6b-3863bb334450,,2024/04/01 01:50:25+00,9,1,9,4,0,YES,YES,YES,YES,https://dc.lft.to/lastmile_qr_scan,https://dc.lft.to/lastmile_qr_scan,NO,NO,19,"KEY,CREDITCARD",42,DCA-CABI,,38.894474,-76.974828,2024/04/01 01:52:28+00,172453463
-77.041783439,38.9050783128099,18th & M St NW,classic,08249ef2-1f3f-11e7-bf6b-3863bb334450,,2024/04/01 01:50:25+00,22,0,5,0,0,YES,YES,YES,YES,https://dc.lft.to/lastmile_qr_scan,https://dc.lft.to/lastmile_qr_scan,NO,NO,27,"KEY,CREDITCARD",42,DCA-CABI,,38.905067,-77.041779,2024/04/01 01:52:28+00,172453464
-77.1105858083632,38.8288942972716,Kenmore Ave & Seminary Rd,classic,347b72fa-4ae2-4017-a9bf-344a122cddeb,,2024/04/01 01:50:27+00,6,0,5,0,0,YES,YES,YES,YES,https://dc.lft.to/lastmile_qr_scan,https://dc.lft.to/lastmile_qr_scan,NO,NO,11,"KEY,CREDITCARD",40,DCA-CABI,,38.828887,-77.110588,2024/04/01 01:52:28+00,172453465
-77.0403653202794,38.8031303961585,Prince St & Union St,classic,08253976-1f3f-11e7-bf6b-3863bb334450,,2024/04/01 01:50:26+00,5,0,12,1,1,YES,YES,YES,YES,https://dc.lft.to/lastmile_qr_scan,https://dc.lft.to/lastmile_qr_scan,NO,NO,19,"KEY,CREDITCARD",40,DCA-CABI,,38.803124,-77.040363,2024/04/01 01:52:28+00,172453466
-76.9935320236249,38.9324619194733,10th & Monroe St NE,classic,0824bb59-1f3f-11e7-bf6b-3863bb334450,,2024/04/01 01:50:22+00,11,0,8,0,0,YES,YES,YES,YES,https://dc.lft.to/lastmile_qr_scan,https://dc.lft.to/lastmile_qr_scan,NO,NO,19,"KEY,CREDITCARD",42,DCA-CABI,,38.932457,-76.993534,2024/04/01 01:52:28+00,172453467
-77.0235073362982,38.9321354348697,Georgia Ave & Morton St NW,classic,461df1a0-fac6-4a11-ac4c-ff795e6299c9,,2024/04/01 01:50:30+00,11,0,8,5,0,YES,YES,YES,YES,https://dc.lft.to/lastmile_qr_scan,https://dc.lft.to/lastmile_qr_scan,NO,NO,19,"KEY,CREDITCARD",42,DCA-CABI,,38.932128,-77.0235,2024/04/01 01:52:28+00,172453468
-77.0848040804787,38.8906236007128,Court House Metro / 15th St & N Uhle St,classic,0825fa8b-1f3f-11e7-bf6b-3863bb334450,,2024/04/01 01:50:35+00,19,0,1,0,1,YES,YES,YES,YES,https://dc.lft.to/lastmile_qr_scan,https://dc.lft.to/lastmile_qr_scan,NO,NO,21,"KEY,CREDITCARD",41,DCA-CABI,,38.890612,-77.084801,2024/04/01 01:52:28+00,172453469
-77.3623010066863,38.9433591976606,South Lakes Dr and Reston Pkwy,classic,d3cf2811-ca2e-4d2c-9843-8a90049b7b80,,2024/04/01 01:50:31+00,7,0,5,2,0,YES,YES,YES,YES,https://dc.lft.to/lastmile_qr_scan,https://dc.lft.to/lastmile_qr_scan,NO,NO,12,"KEY,CREDITCARD",104,DCA-CABI,,38.94335,-77.362304,2024/04/01 01:52:28+00,172453470
-77.0213994175869,38.902678594418,7th & K St NW,classic,a0d0ec92-ebda-436a-b476-7ee9a7bdb67d,,2024/04/01 01:50:34+00,4,0,15,2,0,YES,YES,YES,YES,https://dc.lft.to/lastmile_qr_scan,https://dc.lft.to/lastmile_qr_scan,NO,NO,19,"KEY,CREDITCARD",42,DCA-CABI,,38.902674,-77.021392,2024/04/01 01:52:28+00,172453471
-76.9550521548354,38.9392817490191,Rhode Island Ave & 39th St / Brentwood Arts Exchange,classic,199df30f-328b-48af-8627-952bd9d6fe7c,,2024/04/01 01:50:34+00,5,0,10,1,0,YES,YES,YES,YES,https://dc.lft.to/lastmile_qr_scan,https://dc.lft.to/lastmile_qr_scan,NO,NO,15,"KEY,CREDITCARD",133,DCA-CABI,,38.939271,-76.955047,2024/04/01 01:52:28+00,172453472
-77.0916910739254,38.8949514265826,Langston Blvd & N Cleveland St,classic,0825f4f2-1f3f-11e7-bf6b-3863bb334450,,2024/04/01 01:50:34+00,5,0,8,0,1,YES,YES,YES,YES,https://dc.lft.to/lastmile_qr_scan,https://dc.lft.to/lastmile_qr_scan,NO,NO,15,"KEY,CREDITCARD",41,DCA-CABI,,38.894941,-77.09169,2024/04/01 01:52:28+00,172453473
-77.1323417483324,38.8044946676756,S Pickett St & Shillings St,classic,2260574d-dbc6-4416-9f8c-3e1fcc0d9f5b,,2024/04/01 01:50:30+00,11,0,4,0,0,YES,YES,YES,YES,https://dc.lft.to/lastmile_qr_scan,https://dc.lft.to/lastmile_qr_scan,NO,NO,15,"KEY,CREDITCARD",40,DCA-CABI,,38.804486,-77.132334,2024/04/01 01:52:28+00,172453474
-76.9474473939697,38.89707454299,Minnesota Ave Metro/DOES,classic,0824806c-1f3f-11e7-bf6b-3863bb334450,,2024/04/01 01:50:32+00,12,0,3,1,0,YES,YES,YES,YES,https://dc.lft.to/lastmile_qr_scan,https://dc.lft.to/lastmile_qr_scan,NO,NO,15,"KEY,CREDITCARD",42,DCA-CABI,,38.897063,-76.947446,2024/04/01 01:52:28+00,172453475
-77.0386907181957,38.9421576316462,17th & Upshur St NW,classic,72e7c396-11ad-4e88-bf4b-e60584f748fc,,2024/04/01 01:50:33+00,11,0,8,3,0,YES,YES,YES,YES,https://dc.lft.to/lastmile_qr_scan,https://dc.lft.to/lastmile_qr_scan,NO,NO,19,"KEY,CREDITCARD",42,DCA-CABI,,38.942146,-77.038684,2024/04/01 01:52:28+00,172453476
-77.0374122268109,38.879829324696,Jefferson Memorial,classic,082527e7-1f3f-11e7-bf6b-3863bb334450,,2024/04/01 01:50:33+00,6,0,11,0,6,YES,YES,YES,YES,https://dc.lft.to/lastmile_qr_scan,https://dc.lft.to/lastmile_qr_scan,NO,NO,23,"KEY,CREDITCARD",42,DCA-CABI,,38.879819,-77.037413,2024/04/01 01:52:28+00,172453477
-77.2192631367085,38.9319231164161,Jones Branch & Westbranch Dr,classic,082636d5-1f3f-11e7-bf6b-3863bb334450,,2024/04/01 01:50:28+00,7,0,6,0,0,YES,YES,YES,YES,https://dc.lft.to/lastmile_qr_scan,https://dc.lft.to/lastmile_qr_scan,NO,NO,13,"KEY,CREDITCARD",104,DCA-CABI,,38.931911,-77.219261,2024/04/01 01:52:28+00,172453478
-77.0725657262074,38.8028986063383,Mandeville Ln & Stovall St,classic,141766fa-fa3b-4c61-8e46-a8673c910a0c,,2024/04/01 01:50:29+00,0,0,8,1,4,YES,YES,YES,YES,https://dc.lft.to/lastmile_qr_scan,https://dc.lft.to/lastmile_qr_scan,NO,NO,12,"KEY,CREDITCARD",40,DCA-CABI,,38.802893,-77.072558,2024/04/01 01:52:28+00,172453479
-76.9879120997594,38.8829245700143,13th & E St SE,classic,082494e7-1f3f-11e7-bf6b-3863bb334450,,2024/04/01 01:50:29+00,12,0,3,0,0,YES,YES,YES,YES,https://dc.lft.to/lastmile_qr_scan,https://dc.lft.to/lastmile_qr_scan,NO,NO,15,"KEY,CREDITCARD",42,DCA-CABI,,38.882915,-76.987907,2024/04/01 01:52:28+00,172453480
-77.2208308980579,38.9279474880493,Westbranch Dr & Maitland St,classic,1900610962867255780,,2024/04/01 01:50:33+00,4,0,8,0,0,YES,YES,YES,YES,https://dc.lft.to/lastmile_qr_scan,https://dc.lft.to/lastmile_qr_scan,NO,NO,12,"KEY,CREDITCARD",,DCA-CABI,,38.927943,-77.220829,2024/04/01 01:52:28+00,172453481
-76.9162449046559,39.0024712218644,Greenbelt Station Parkway,classic,cec05512-b9d1-4671-bc76-8b168079db93,,2024/04/01 01:50:38+00,6,0,4,4,1,YES,YES,YES,YES,https://dc.lft.to/lastmile_qr_scan,https://dc.lft.to/lastmile_qr_scan,NO,NO,11,"KEY,CREDITCARD",133,DCA-CABI,,39.002459,-76.916243,2024/04/01 01:52:28+00,172453482
-77.2023537563786,39.1061625649145,Key West Ave & Diamondback Dr,classic,fe1f5f98-892e-4c51-b842-3d32c9f0b4ab,,2024/04/01 01:50:38+00,3,0,8,1,0,YES,YES,YES,YES,https://dc.lft.to/lastmile_qr_scan,https://dc.lft.to/lastmile_qr_scan,NO,NO,11,"KEY,CREDITCARD",43,DCA-CABI,,39.106152,-77.202354,2024/04/01 01:52:28+00,172453483
-77.0860662105042,38.8284825490191,Radford & Osage St,classic,08261ee4-1f3f-11e7-bf6b-3863bb334450,,2024/04/01 01:50:38+00,22,0,1,0,0,YES,YES,YES,YES,https://dc.lft.to/lastmile_qr_scan,https://dc.lft.to/lastmile_qr_scan,NO,NO,23,"KEY,CREDITCARD",40,DCA-CABI,,38.828471,-77.086061,2024/04/01 01:52:28+00,172453484
-77.1009881628478,38.8503431275477,Barcroft Community Center,classic,08251c45-1f3f-11e7-bf6b-3863bb334450,,2024/04/01 01:50:36+00,6,0,5,2,0,YES,YES,YES,YES,https://dc.lft.to/lastmile_qr_scan,https://dc.lft.to/lastmile_qr_scan,NO,NO,11,"KEY,CREDITCARD",41,DCA-CABI,,38.850337,-77.100989,2024/04/01 01:52:28+00,172453485
-77.038800488688,38.9319061504705,Lamont & Mt Pleasant NW,classic,082477f4-1f3f-11e7-bf6b-3863bb334450,,2024/04/01 01:50:36+00,19,2,1,0,1,YES,YES,YES,YES,https://dc.lft.to/lastmile_qr_scan,https://dc.lft.to/lastmile_qr_scan,NO,NO,23,"KEY,CREDITCARD",42,DCA-CABI,,38.9319,-77.0388,2024/04/01 01:52:28+00,172453486
-77.1181132561667,38.8540295265966,Columbia Pike & S Greenbrier St,classic,f0d7675e-2ce0-41e7-94f5-28ca712fa456,,2024/04/01 01:50:36+00,7,0,8,5,0,YES,YES,YES,YES,https://dc.lft.to/lastmile_qr_scan,https://dc.lft.to/lastmile_qr_scan,NO,NO,15,"KEY,CREDITCARD",41,DCA-CABI,,38.854019,-77.118106,2024/04/01 01:52:28+00,172453487
-76.9595073215722,38.9546064655366,Queens Chapel & Hamilton St,classic,27d919c7-7fda-41d1-9c05-2f537d5c4ce2,,2024/04/01 01:50:37+00,7,0,8,1,0,YES,YES,YES,YES,https://dc.lft.to/lastmile_qr_scan,https://dc.lft.to/lastmile_qr_scan,NO,NO,15,"KEY,CREDITCARD",133,DCA-CABI,,38.9546,-76.9595,2024/04/01 01:52:28+00,172453488
-77.0515207671615,38.8506997438004,Clark St & 26th St S,classic,0824739d-1f3f-11e7-bf6b-3863bb334450,,2024/04/01 01:50:41+00,8,0,4,1,0,YES,YES,YES,YES,https://dc.lft.to/lastmile_qr_scan,https://dc.lft.to/lastmile_qr_scan,NO,NO,12,"KEY,CREDITCARD",41,DCA-CABI,,38.850688,-77.05152,2024/04/01 01:52:28+00,172453489
-76.9835837062674,38.860448071532,16th & Bangor St SE,classic,7c790f6e-7889-4c3c-97d6-ffd37e68bb2d,,2024/04/01 01:50:41+00,12,0,3,3,0,YES,YES,YES,YES,https://dc.lft.to/lastmile_qr_scan,https://dc.lft.to/lastmile_qr_scan,NO,NO,15,"KEY,CREDITCARD",42,DCA-CABI,,38.86044,-76.983585,2024/04/01 01:52:28+00,172453490
-77.0223286311396,38.924793890501,Georgia Ave & Fairmont St NW,classic,0824844b-1f3f-11e7-bf6b-3863bb334450,,2024/04/01 01:50:44+00,4,0,10,10,1,YES,YES,YES,YES,https://dc.lft.to/lastmile_qr_scan,https://dc.lft.to/lastmile_qr_scan,NO,NO,15,"KEY,CREDITCARD",42,DCA-CABI,,38.924785,-77.022327,2024/04/01 01:52:28+00,172453491
-77.053092515253,39.0432780221514,Grandview & Blueridge Ave,classic,08265262-1f3f-11e7-bf6b-3863bb334450,,2024/04/01 01:50:47+00,13,0,2,0,0,YES,YES,YES,YES,https://dc.lft.to/lastmile_qr_scan,https://dc.lft.to/lastmile_qr_scan,NO,NO,15,"KEY,CREDITCARD",44,DCA-CABI,,39.043272,-77.053085,2024/04/01 01:52:28+00,172453492
-77.0251023505726,38.9418100163815,9th & Upshur St NW,classic,08251532-1f3f-11e7-bf6b-3863bb334450,,2024/04/01 01:50:47+00,0,2,12,9,1,YES,YES,YES,YES,https://dc.lft.to/lastmile_qr_scan,https://dc.lft.to/lastmile_qr_scan,NO,NO,15,"KEY,CREDITCARD",42,DCA-CABI,,38.9418,-77.0251,2024/04/01 01:52:28+00,172453493
-76.9952246446623,38.974215332962,New Hampshire Ave & East-West Hwy,classic,ae00650a-be2d-4912-8f0d-8338b3754eed,,2024/04/01 01:50:47+00,6,0,9,1,0,YES,YES,YES,YES,https://dc.lft.to/lastmile_qr_scan,https://dc.lft.to/lastmile_qr_scan,NO,NO,15,"KEY,CREDITCARD",133,DCA-CABI,,38.974205,-76.995227,2024/04/01 01:52:28+00,172453494
-77.118013647706,38.8983059392169,Langston Blvd & N Woodstock St,classic,082614e4-1f3f-11e7-bf6b-3863bb334450,,2024/04/01 01:50:47+00,16,0,3,3,0,YES,YES,YES,YES,https://dc.lft.to/lastmile_qr_scan,https://dc.lft.to/lastmile_qr_scan,NO,NO,19,"KEY,CREDITCARD",41,DCA-CABI,,38.898301,-77.118009,2024/04/01 01:52:28+00,172453495
-77.0261435890587,38.887336377197,Independence Ave & L'Enfant Plaza SW/DOE,classic,08256e7b-1f3f-11e7-bf6b-3863bb334450,,2024/04/01 01:50:43+00,21,0,1,0,1,YES,YES,YES,YES,https://dc.lft.to/lastmile_qr_scan,https://dc.lft.to/lastmile_qr_scan,NO,NO,23,"KEY,CREDITCARD",42,DCA-CABI,,38.887332,-77.026141,2024/04/01 01:52:28+00,172453496
-76.9968095562695,38.8869609079637,Eastern Market / 7th & North Carolina Ave SE,classic,08249a1c-1f3f-11e7-bf6b-3863bb334450,,2024/04/01 01:50:42+00,5,0,10,0,0,YES,YES,YES,YES,https://dc.lft.to/lastmile_qr_scan,https://dc.lft.to/lastmile_qr_scan,NO,NO,15,"KEY,CREDITCARD",42,DCA-CABI,,38.886952,-76.996806,2024/04/01 01:52:28+00,172453497
-77.0320104120691,38.9130537857071,14th & R St NW,classic,0824799f-1f3f-11e7-bf6b-3863bb334450,,2024/04/01 01:50:42+00,10,0,8,1,1,YES,YES,YES,YES,https://dc.lft.to/lastmile_qr_scan,https://dc.lft.to/lastmile_qr_scan,NO,NO,19,"KEY,CREDITCARD",42,DCA-CABI,,38.913046,-77.032008,2024/04/01 01:52:28+00,172453498
-77.1528562295112,38.8738167599707,Eden Center,classic,a016ea6f-0d7f-45fb-b8ac-0cfe22cd972a,,2024/04/01 01:50:42+00,10,0,2,0,0,YES,YES,YES,YES,https://dc.lft.to/lastmile_qr_scan,https://dc.lft.to/lastmile_qr_scan,NO,NO,12,"KEY,CREDITCARD",152,DCA-CABI,,38.873808,-77.152849,2024/04/01 01:52:28+00,172453499
-77.1736046405826,38.8854446394839,Falls Church City Hall / Park Ave & Little Falls St,classic,3735d025-7e82-467c-8844-29d08d66b0e4,,2024/04/01 01:50:42+00,8,0,4,0,0,YES,YES,YES,YES,https://dc.lft.to/lastmile_qr_scan,https://dc.lft.to/lastmile_qr_scan,NO,NO,12,"KEY,CREDITCARD",152,DCA-CABI,,38.885434,-77.173605,2024/04/01 01:52:28+00,172453500
-77.0222474193209,38.8862741953204,L'Enfant Plaza / 7th & C St SW,classic,08249d44-1f3f-11e7-bf6b-3863bb334450,,2024/04/01 01:50:45+00,8,0,6,0,1,YES,YES,YES,YES,https://dc.lft.to/lastmile_qr_scan,https://dc.lft.to/lastmile_qr_scan,NO,NO,15,"KEY,CREDITCARD",42,DCA-CABI,,38.886266,-77.022241,2024/04/01 01:52:28+00,172453501
-77.0057417765094,38.8807720490838,New Jersey Ave & H St SE,classic,2574f980-163e-4b9b-8107-6145615815b3,,2024/04/01 01:50:45+00,11,0,8,1,0,YES,YES,YES,YES,https://dc.lft.to/lastmile_qr_scan,https://dc.lft.to/lastmile_qr_scan,NO,NO,19,"KEY,CREDITCARD",42,DCA-CABI,,38.880761,-77.005741,2024/04/01 01:52:28+00,172453502
-77.1002405348773,38.9906485089211,Norfolk & Rugby Ave,classic,0825b27e-1f3f-11e7-bf6b-3863bb334450,,2024/04/01 01:50:47+00,10,0,1,0,0,YES,YES,YES,YES,https://dc.lft.to/lastmile_qr_scan,https://dc.lft.to/lastmile_qr_scan,NO,NO,11,"KEY,CREDITCARD",44,DCA-CABI,,38.990639,-77.100239,2024/04/01 01:52:28+00,172453503
-77.02806234761,38.9011097296208,12th St & New York Ave NW,classic,b554d2fc-8912-4730-b2cb-9a3e1a96b223,,2024/04/01 01:50:47+00,18,0,9,2,0,YES,YES,YES,YES,https://dc.lft.to/lastmile_qr_scan,https://dc.lft.to/lastmile_qr_scan,NO,NO,27,"KEY,CREDITCARD",42,DCA-CABI,,38.901104,-77.028061,2024/04/01 01:52:28+00,172453504
-77.0716579070536,38.9078473895383,37th & O St NW / Georgetown University,classic,0824cdb0-1f3f-11e7-bf6b-3863bb334450,,2024/04/01 01:50:50+00,19,0,3,1,1,YES,YES,YES,YES,https://dc.lft.to/lastmile_qr_scan,https://dc.lft.to/lastmile_qr_scan,NO,NO,23,"KEY,CREDITCARD",42,DCA-CABI,,38.907837,-77.07166,2024/04/01 01:52:28+00,172453505
-77.2025035281608,39.0937943155045,Traville Gateway Dr & Gudelsky Dr,classic,08257f71-1f3f-11e7-bf6b-3863bb334450,,2024/04/01 01:50:51+00,13,0,6,1,0,YES,YES,YES,YES,https://dc.lft.to/lastmile_qr_scan,https://dc.lft.to/lastmile_qr_scan,NO,NO,19,"KEY,CREDITCARD",43,DCA-CABI,,39.093783,-77.202501,2024/04/01 01:52:28+00,172453506
-77.0955125261058,38.9165684184648,48th Pl & MacArthur Blvd NW,classic,e07eed7c-2d2a-4f13-aff7-2be6500958f7,,2024/04/01 01:50:51+00,0,1,18,3,0,YES,YES,YES,YES,https://dc.lft.to/lastmile_qr_scan,https://dc.lft.to/lastmile_qr_scan,NO,NO,19,"KEY,CREDITCARD",42,DCA-CABI,,38.916561,-77.095513,2024/04/01 01:52:28+00,172453507
-77.046577360941,38.8841320394555,Ohio Dr & West Basin Dr SW / MLK & FDR Memorials,classic,0824e68d-1f3f-11e7-bf6b-3863bb334450,,2024/04/01 01:50:51+00,4,0,24,0,3,YES,YES,YES,YES,https://dc.lft.to/lastmile_qr_scan,https://dc.lft.to/lastmile_qr_scan,NO,NO,31,"KEY,CREDITCARD",42,DCA-CABI,,38.88412,-77.04657,2024/04/01 01:52:28+00,172453508
-77.0473555445358,39.0320383581521,Windham Ln & Amherst Ave,classic,082652d2-1f3f-11e7-bf6b-3863bb334450,,2024/04/01 01:50:51+00,7,0,8,1,0,YES,YES,YES,YES,https://dc.lft.to/lastmile_qr_scan,https://dc.lft.to/lastmile_qr_scan,NO,NO,15,"KEY,CREDITCARD",44,DCA-CABI,,39.032029,-77.04735,2024/04/01 01:52:28+00,172453509
-77.0054901438539,38.9057072323447,1st & M St NE,classic,0824927c-1f3f-11e7-bf6b-3863bb334450,,2024/04/01 01:50:52+00,2,0,10,7,4,YES,YES,YES,YES,https://dc.lft.to/lastmile_qr_scan,https://dc.lft.to/lastmile_qr_scan,NO,NO,15,"KEY,CREDITCARD",42,DCA-CABI,,38.905697,-77.005483,2024/04/01 01:52:28+00,172453510
-77.0980994669609,38.8440486863942,S Wakefield St & 28th St S,classic,7af26d39-a3b4-4fb3-b5b2-3acd415b9bea,,2024/04/01 01:50:52+00,14,0,1,0,0,YES,YES,YES,YES,https://dc.lft.to/lastmile_qr_scan,https://dc.lft.to/lastmile_qr_scan,NO,NO,15,"KEY,CREDITCARD",41,DCA-CABI,,38.84404,-77.098093,2024/04/01 01:52:28+00,172453511
-77.0465656745807,38.9015452289578,21st St & Pennsylvania Ave NW,classic,0825388d-1f3f-11e7-bf6b-3863bb334450,,2024/04/01 01:50:53+00,15,0,4,0,0,YES,YES,YES,YES,https://dc.lft.to/lastmile_qr_scan,https://dc.lft.to/lastmile_qr_scan,NO,NO,19,"KEY,CREDITCARD",42,DCA-CABI,,38.901539,-77.046564,2024/04/01 01:52:28+00,172453512
-77.0175876443282,38.8729695939235,4th & O St SW,classic,9c6fb0a8-d371-433f-b52e-ca47881156b3,,2024/04/01 01:50:53+00,9,0,4,1,2,YES,YES,YES,YES,https://dc.lft.to/lastmile_qr_scan,https://dc.lft.to/lastmile_qr_scan,NO,NO,15,"KEY,CREDITCARD",42,DCA-CABI,,38.872964,-77.017585,2024/04/01 01:52:28+00,172453513
-77.0871306262456,38.9363031916354,American University East Campus,classic,ad6ec1ce-db22-47c1-acf3-507897d40725,,2024/04/01 01:50:54+00,7,0,12,1,0,YES,YES,YES,YES,https://dc.lft.to/lastmile_qr_scan,https://dc.lft.to/lastmile_qr_scan,NO,NO,19,"KEY,CREDITCARD",42,DCA-CABI,,38.936298,-77.087128,2024/04/01 01:52:28+00,172453514
-77.0267531711138,38.9760680655625,Georgia Ave & Dahlia St NW,classic,f8b331c6-d208-4b17-b788-1a17d2520c40,,2024/04/01 01:50:54+00,14,0,5,2,0,YES,YES,YES,YES,https://dc.lft.to/lastmile_qr_scan,https://dc.lft.to/lastmile_qr_scan,NO,NO,19,"KEY,CREDITCARD",42,DCA-CABI,,38.976061,-77.026747,2024/04/01 01:52:28+00,172453515
-76.9492977756373,38.9698084200216,Hyattsville Library / Adelphi Rd & Toledo Rd,classic,bcb21167-85ed-4374-8807-d9409aaa01a5,,2024/04/01 01:50:55+00,11,0,4,0,0,YES,YES,YES,YES,https://dc.lft.to/lastmile_qr_scan,https://dc.lft.to/lastmile_qr_scan,NO,NO,15,"KEY,CREDITCARD",133,DCA-CABI,,38.9698,-76.9493,2024/04/01 01:52:28+00,172453516
-77.0824230626866,38.9548186370875,Fessenden St & Wisconsin Ave NW,classic,08254529-1f3f-11e7-bf6b-3863bb334450,,2024/04/01 01:50:55+00,3,0,12,2,0,YES,YES,YES,YES,https://dc.lft.to/lastmile_qr_scan,https://dc.lft.to/lastmile_qr_scan,NO,NO,15,"KEY,CREDITCARD",42,DCA-CABI,,38.954812,-77.082426,2024/04/01 01:52:28+00,172453517
-77.0256141514714,38.953673810729,9th & Ingraham St NW,classic,30b5e0c1-7ca6-4050-8566-3fccf0b60890,,2024/04/01 01:50:53+00,4,0,13,1,2,YES,YES,YES,YES,https://dc.lft.to/lastmile_qr_scan,https://dc.lft.to/lastmile_qr_scan,NO,NO,19,"KEY,CREDITCARD",42,DCA-CABI,,38.953663,-77.025613,2024/04/01 01:52:28+00,172453518
-77.0057528387848,38.8750337007403,1st & N St SE,classic,082484cf-1f3f-11e7-bf6b-3863bb334450,,2024/04/01 01:50:53+00,14,0,24,0,0,YES,YES,YES,YES,https://dc.lft.to/lastmile_qr_scan,https://dc.lft.to/lastmile_qr_scan,NO,NO,39,"KEY,CREDITCARD",42,DCA-CABI,,38.875023,-77.005754,2024/04/01 01:52:28+00,172453519
-76.9728531977742,38.9307834008169,24th St & Rhode Island Ave NE,classic,77cd13d5-f671-437a-a59c-bcc74c6b211e,,2024/04/01 01:50:54+00,8,0,7,0,0,YES,YES,YES,YES,https://dc.lft.to/lastmile_qr_scan,https://dc.lft.to/lastmile_qr_scan,NO,NO,15,"KEY,CREDITCARD",42,DCA-CABI,,38.930774,-76.972851,2024/04/01 01:52:28+00,172453520
-77.0271649827246,38.9362334202046,10th St & Spring Rd NW,classic,63fa246c-6bed-41f0-97eb-d2d7888c1db0,,2024/04/01 01:50:54+00,2,0,12,0,0,YES,YES,YES,YES,https://dc.lft.to/lastmile_qr_scan,https://dc.lft.to/lastmile_qr_scan,NO,NO,15,"KEY,CREDITCARD",42,DCA-CABI,,38.936228,-77.027163,2024/04/01 01:52:28+00,172453521
-77.0344302103336,38.9098100944613,15th & P St NW,classic,0824791a-1f3f-11e7-bf6b-3863bb334450,,2024/04/01 01:50:50+00,6,0,12,0,1,YES,YES,YES,YES,https://dc.lft.to/lastmile_qr_scan,https://dc.lft.to/lastmile_qr_scan,NO,NO,19,"KEY,CREDITCARD",42,DCA-CABI,,38.909801,-77.034427,2024/04/01 01:52:28+00,172453522
-77.0059139126738,38.8718447183143,1st St & Potomac Ave SE,classic,66c82803-70e3-496f-9942-30e0936de3f5,,2024/04/01 01:50:56+00,12,0,6,0,1,YES,YES,YES,YES,https://dc.lft.to/lastmile_qr_scan,https://dc.lft.to/lastmile_qr_scan,NO,NO,19,"KEY,CREDITCARD",42,DCA-CABI,,38.871841,-77.00591,2024/04/01 01:52:28+00,172453523
-77.0366523027635,38.9261054903053,16th & Harvard St NW,classic,ae007456-14ad-4619-a92e-e3a40f93a412,,2024/04/01 01:50:56+00,15,0,3,1,1,YES,YES,YES,YES,https://dc.lft.to/lastmile_qr_scan,https://dc.lft.to/lastmile_qr_scan,NO,NO,19,"KEY,CREDITCARD",42,DCA-CABI,,38.926102,-77.03665,2024/04/01 01:52:28+00,172453524
-77.3534546823668,38.9785097372476,Lake Newport Rd and Autumn Ridge Cir,classic,29f174dd-e7bc-4329-a570-0220f0d1be84,,2024/04/01 01:50:55+00,8,0,4,1,0,YES,YES,YES,YES,https://dc.lft.to/lastmile_qr_scan,https://dc.lft.to/lastmile_qr_scan,NO,NO,12,"KEY,CREDITCARD",104,DCA-CABI,,38.978503,-77.353454,2024/04/01 01:52:28+00,172453525
-77.0406929272645,38.8123549846507,Madison St & Fairfax St,classic,08264173-1f3f-11e7-bf6b-3863bb334450,,2024/04/01 01:50:55+00,2,0,13,1,0,YES,YES,YES,YES,https://dc.lft.to/lastmile_qr_scan,https://dc.lft.to/lastmile_qr_scan,NO,NO,15,"KEY,CREDITCARD",40,DCA-CABI,,38.812351,-77.040691,2024/04/01 01:52:28+00,172453526
-76.9832272760669,38.9063097172754,Trinidad Rec Center,classic,d0a82ee8-e718-4598-aa5e-dda9292c248c,,2024/04/01 01:50:58+00,1,0,15,2,3,YES,YES,YES,YES,https://dc.lft.to/lastmile_qr_scan,https://dc.lft.to/lastmile_qr_scan,NO,NO,19,"KEY,CREDITCARD",42,DCA-CABI,,38.906299,-76.983221,2024/04/01 01:52:28+00,172453527
-77.0215988878353,38.9141822166097,7th & S St NW,classic,4f9000ec-e47e-494e-9b49-61e95b5a6f03,,2024/04/01 01:50:58+00,13,0,6,2,0,YES,YES,YES,YES,https://dc.lft.to/lastmile_qr_scan,https://dc.lft.to/lastmile_qr_scan,NO,NO,19,"KEY,CREDITCARD",42,DCA-CABI,,38.914174,-77.021595,2024/04/01 01:52:28+00,172453528
-77.0477898660708,38.818757328518,Powhatan St & Bashford Ln,classic,082630e2-1f3f-11e7-bf6b-3863bb334450,,2024/04/01 01:50:58+00,9,0,6,0,0,YES,YES,YES,YES,https://dc.lft.to/lastmile_qr_scan,https://dc.lft.to/lastmile_qr_scan,NO,NO,15,"KEY,CREDITCARD",40,DCA-CABI,,38.818748,-77.047783,2024/04/01 01:52:28+00,172453529
-77.0454925205786,38.9180399323106,20th & Columbia Rd NW,classic,7346145e-f487-4f07-acb8-ed3e0b8b56bb,,2024/04/01 01:50:58+00,13,0,4,2,2,YES,YES,YES,YES,https://dc.lft.to/lastmile_qr_scan,https://dc.lft.to/lastmile_qr_scan,NO,NO,19,"KEY,CREDITCARD",42,DCA-CABI,,38.918036,-77.045487,2024/04/01 01:52:28+00,172453530
-77.0803246298352,38.8638447946788,Columbia Pike & S Courthouse Rd,classic,0825460b-1f3f-11e7-bf6b-3863bb334450,,2024/04/01 01:50:58+00,14,0,1,0,0,YES,YES,YES,YES,https://dc.lft.to/lastmile_qr_scan,https://dc.lft.to/lastmile_qr_scan,NO,NO,15,"KEY,CREDITCARD",41,DCA-CABI,,38.863833,-77.080319,2024/04/01 01:52:28+00,172453531
-76.9757202756908,39.0461521206952,White Oak Rec Center,classic,2213781a-5c69-43eb-9b33-346d61e7e1ba,,2024/04/01 01:50:58+00,15,0,0,0,0,YES,YES,YES,YES,https://dc.lft.to/lastmile_qr_scan,https://dc.lft.to/lastmile_qr_scan,NO,NO,15,"KEY,CREDITCARD",44,DCA-CABI,,39.046144,-76.975723,2024/04/01 01:52:28+00,172453532
-76.8446025282984,38.8998206458338,Largo Town Center Metro,classic,29b65d73-fc99-42e3-9007-2175402a5c56,,2024/04/01 01:50:59+00,10,0,6,0,1,YES,YES,YES,YES,https://dc.lft.to/lastmile_qr_scan,https://dc.lft.to/lastmile_qr_scan,NO,NO,17,"KEY,CREDITCARD",133,DCA-CABI,,38.899811,-76.844604,2024/04/01 01:52:28+00,172453533
-77.0568864972829,38.9051349934261,M St & Pennsylvania Ave NW,classic,08251984-1f3f-11e7-bf6b-3863bb334450,,2024/04/01 01:50:57+00,10,0,7,2,1,YES,YES,YES,YES,https://dc.lft.to/lastmile_qr_scan,https://dc.lft.to/lastmile_qr_scan,NO,NO,19,"KEY,CREDITCARD",42,DCA-CABI,,38.905126,-77.056887,2024/04/01 01:52:28+00,172453534
-77.2303796990045,38.8814458082589,Prosperity Ave & Avenir Pl,classic,1893303738183408178,,2024/04/01 01:50:57+00,11,0,0,0,0,YES,YES,YES,YES,https://dc.lft.to/lastmile_qr_scan,https://dc.lft.to/lastmile_qr_scan,NO,NO,11,"KEY,CREDITCARD",,DCA-CABI,,38.881436,-77.230377,2024/04/01 01:52:28+00,172453535
-77.1127548721065,38.8824293549826,Fairfax Dr & N Taylor St,classic,8dfb34e2-7f75-4359-a374-5bf5e86c4793,,2024/04/01 01:51:01+00,11,0,0,0,0,YES,YES,YES,YES,https://dc.lft.to/lastmile_qr_scan,https://dc.lft.to/lastmile_qr_scan,NO,NO,11,"KEY,CREDITCARD",41,DCA-CABI,,38.882425,-77.112754,2024/04/01 01:52:28+00,172453536
-77.1079097156422,38.8718310420981,N Pershing Dr & N George Mason Dr,classic,082572b6-1f3f-11e7-bf6b-3863bb334450,,2024/04/01 01:51:01+00,5,0,6,3,0,YES,YES,YES,YES,https://dc.lft.to/lastmile_qr_scan,https://dc.lft.to/lastmile_qr_scan,NO,NO,11,"KEY,CREDITCARD",41,DCA-CABI,,38.871822,-77.107906,2024/04/01 01:52:28+00,172453537
-77.0298258460357,38.9002895319474,13th St & New York Ave NW,classic,0824aa39-1f3f-11e7-bf6b-3863bb334450,,2024/04/01 01:51:01+00,20,0,7,0,0,YES,YES,YES,YES,https://dc.lft.to/lastmile_qr_scan,https://dc.lft.to/lastmile_qr_scan,NO,NO,27,"KEY,CREDITCARD",42,DCA-CABI,,38.900283,-77.029822,2024/04/01 01:52:28+00,172453538
-77.0769854112556,38.994125275868,Connecticut Ave & Chevy Chase Lake Dr,classic,08261407-1f3f-11e7-bf6b-3863bb334450,,2024/04/01 01:51:01+00,5,0,10,5,0,YES,YES,YES,YES,https://dc.lft.to/lastmile_qr_scan,https://dc.lft.to/lastmile_qr_scan,NO,NO,15,"KEY,CREDITCARD",44,DCA-CABI,,38.994113,-77.076986,2024/04/01 01:52:28+00,172453539
-77.0035652339994,38.9147606923286,2nd St & Seaton Pl NE,classic,0826005e-1f3f-11e7-bf6b-3863bb334450,,2024/04/01 01:51:01+00,9,1,8,5,1,YES,YES,YES,YES,https://dc.lft.to/lastmile_qr_scan,https://dc.lft.to/lastmile_qr_scan,NO,NO,19,"KEY,CREDITCARD",42,DCA-CABI,,38.914751,-77.00356,2024/04/01 01:52:28+00,172453540
-77.0296367865573,38.9169460131686,13th & U St NW,classic,732103a1-eedd-4044-afa6-67b2d192ff22,,2024/04/01 01:51:01+00,13,0,5,3,1,YES,YES,YES,YES,https://dc.lft.to/lastmile_qr_scan,https://dc.lft.to/lastmile_qr_scan,NO,NO,19,"KEY,CREDITCARD",42,DCA-CABI,,38.916936,-77.029631,2024/04/01 01:52:28+00,172453541
-76.9836863166128,38.9156154001449,New York Ave & Hecht Ave NE,classic,0826132d-1f3f-11e7-bf6b-3863bb334450,,2024/04/01 01:51:02+00,3,0,15,0,4,YES,YES,YES,YES,https://dc.lft.to/lastmile_qr_scan,https://dc.lft.to/lastmile_qr_scan,NO,NO,23,"KEY,CREDITCARD",42,DCA-CABI,,38.915604,-76.983683,2024/04/01 01:52:28+00,172453542
-77.0493825283103,38.8905448549076,Henry Bacon Dr & Lincoln Memorial Circle NW,classic,0826233f-1f3f-11e7-bf6b-3863bb334450,,2024/04/01 01:51:02+00,18,0,1,0,0,YES,YES,YES,YES,https://dc.lft.to/lastmile_qr_scan,https://dc.lft.to/lastmile_qr_scan,NO,NO,19,"KEY,CREDITCARD",42,DCA-CABI,,38.890539,-77.049383,2024/04/01 01:52:28+00,172453543
-77.0594946966297,38.8530111205071,23rd St S & Hayes St,classic,99644655-ef85-4e13-a331-a344d88ded32,,2024/04/01 01:51:00+00,6,0,9,2,0,YES,YES,YES,YES,https://dc.lft.to/lastmile_qr_scan,https://dc.lft.to/lastmile_qr_scan,NO,NO,15,"KEY,CREDITCARD",41,DCA-CABI,,38.853002,-77.059496,2024/04/01 01:52:28+00,172453544
-77.0279111925734,38.9567451040715,Georgia Ave & Kennedy St NW,classic,568a84a6-8911-48aa-8ad4-9a1b46564e9d,,2024/04/01 01:50:58+00,13,0,6,1,0,YES,YES,YES,YES,https://dc.lft.to/lastmile_qr_scan,https://dc.lft.to/lastmile_qr_scan,NO,NO,19,"KEY,CREDITCARD",42,DCA-CABI,,38.95674,-77.02791,2024/04/01 01:52:28+00,172453545
-77.3587377759011,38.9596392547559,Library St & Freedom Dr,classic,08263b6d-1f3f-11e7-bf6b-3863bb334450,,2024/04/01 01:51:02+00,8,0,7,0,0,YES,YES,YES,YES,https://dc.lft.to/lastmile_qr_scan,https://dc.lft.to/lastmile_qr_scan,NO,NO,15,"KEY,CREDITCARD",104,DCA-CABI,,38.959633,-77.358741,2024/04/01 01:52:28+00,172453546
